1=~=~=~=~=~=~=~=~=~=~=~= PuTTY log 2020.09.24 13:02:22 =~=~=~=~=~=~=~=~=~=~=~=
1$GPGGA,013420.74,4154.16691999,N,01229.78196000,E,4,03,0.000,0.000,M,,M,,*7E
1$GPGST,013420.74,0.000,153589.218,31076.183,101.474,0.000,0.000,0.000*66
1$GPVTG,49.665,T,49.665,M,555.879,N,1029.489,K,D*1A
1$GPGLL,4154.16691999,N,01229.78196000,E,013420.74,A,D*66
1$GPGGA,013420.75,4154.16691999,N,01229.78196000,E,4,03,0.000,0.000,M,,M,,*7F
1$GPGST,013420.75,0.000,153589.218,31076.183,101.474,0.000,0.000,0.000*67
1$GPVTG,49.659,T,49.659,M,556.073,N,1029.847,K,D*15
1$GPGLL,4154.16691999,N,01229.78196000,E,013420.75,A,D*67
1$GPGGA,013420.76,4154.16691999,N,01229.78196000,E,4,03,0.000,0.000,M,,M,,*7C
1$GPGST,013420.76,0.000,153589.218,31076.183,101.474,0.000,0.000,0.000*64
1$GPVTG,49.654,T,49.654,M,556.245,N,1030.167,K,D*11
1$GPGLL,4154.16691999,N,01229.78196000,E,013420.76,A,D*64
1$GPGGA,013420.77,4154.16691999,N,01229.78196000,E,4,03,0.000,0.000,M,,M,,*7D
1$GPGST,013420.77,0.000,153589.218,31076.183,101.474,0.000,0.000,0.000*65
1$GPVTG,49.648,T,49.648,M,556.390,N,1030.434,K,D*1B
1$GPGLL,4154.16691999,N,01229.78196000,E,013420.77,A,D*65
1$GPGGA,013420.78,4154.16691999,N,01229.78196000,E,4,03,0.000,0.000,M,,M,,*72
1$GPGST,013420.78,0.000,153589.218,31076.183,101.474,0.000,0.000,0.000*6A
1$GPVTG,49.642,T,49.642,M,556.510,N,1030.657,K,D*12
1$GPGLL,4154.16691999,N,01229.78196000,E,013420.78,A,D*6A
1$GPGGA,013420.79,4154.16691999,N,01229.78196000,E,4,03,0.000,0.000,M,,M,,*73
1$GPGST,013420.79,0.000,153589.218,31076.183,101.474,0.000,0.000,0.000*6B
1$GPVTG,49.636,T,49.636,M,556.601,N,1030.826,K,D*19
1$GPGLL,4154.16691999,N,01229.78196000,E,013420.79,A,D*6B
1$GPGGA,013420.80,4154.16691999,N,01229.78196000,E,4,03,0.000,0.000,M,,M,,*75
1$GPGST,013420.80,0.000,153589.218,31076.183,101.474,0.000,0.000,0.000*6D
1$GPVTG,49.630,T,49.630,M,556.667,N,1030.947,K,D*1F
1$GPGLL,4154.16691999,N,01229.78196000,E,013420.80,A,D*6D
1$GPGGA,013420.81,4154.16691999,N,01229.78196000,E,4,03,0.000,0.000,M,,M,,*74
1$GPGST,013420.81,0.000,153589.218,31076.183,101.474,0.000,0.000,0.000*6C
1$GPVTG,49.624,T,49.624,M,556.705,N,1031.019,K,D*19
1$GPGLL,4154.16691999,N,01229.78196000,E,013420.81,A,D*6C
1$GPGGA,013420.82,4154.16691999,N,01229.78196000,E,4,03,0.000,0.000,M,,M,,*77
1$GPGST,013420.82,0.000,153588.843,31077.140,101.478,0.000,0.000,0.000*68
1$GPVTG,49.618,T,49.618,M,556.717,N,1031.040,K,D*16
1$GPGLL,4154.16691999,N,01229.78196000,E,013420.82,A,D*6F
1$GPGGA,013420.83,4154.16691999,N,01229.78196000,E,4,03,0.000,0.000,M,,M,,*76
1$GPGST,013420.83,0.000,153588.843,31077.140,101.478,0.000,0.000,0.000*69
1$GPVTG,49.612,T,49.612,M,556.700,N,1031.010,K,D*15
1$GPGLL,4154.16691999,N,01229.78196000,E,013420.83,A,D*6E
1$GPGGA,013420.84,4154.16691999,N,01229.78196000,E,4,03,0.000,0.000,M,,M,,*71
1$GPGST,013420.84,0.000,153588.843,31077.140,101.478,0.000,0.000,0.000*6E
1$GPVTG,49.606,T,49.606,M,556.657,N,1030.929,K,D*14
1$GPGLL,4154.16691999,N,01229.78196000,E,013420.84,A,D*69
1$GPGGA,013420.85,4154.16691999,N,01229.78196000,E,4,03,0.000,0.000,M,,M,,*70
1$GPGST,013420.85,0.000,153588.843,31077.140,101.478,0.000,0.000,0.000*6F
1$GPVTG,49.600,T,49.600,M,556.586,N,1030.798,K,D*1F
1$GPGLL,4154.16691999,N,01229.78196000,E,013420.85,A,D*68
1$GPGGA,013420.86,4154.16691999,N,01229.78196000,E,4,03,0.000,0.000,M,,M,,*73
1$GPGST,013420.86,0.000,153588.843,31077.140,101.478,0.000,0.000,0.000*6C
1$GPVTG,49.594,T,49.594,M,556.489,N,1030.617,K,D*17
1$GPGLL,4154.16691999,N,01229.78196000,E,013420.86,A,D*6B
1$GPGGA,013420.87,4154.16691999,N,01229.78196000,E,4,03,0.000,0.000,M,,M,,*72
1$GPGST,013420.87,0.000,153588.843,31077.140,101.478,0.000,0.000,0.000*6D
1$GPVTG,49.588,T,49.588,M,556.365,N,1030.388,K,D*11
1$GPGLL,4154.16691999,N,01229.78196000,E,013420.87,A,D*6A
1$GPGGA,013420.88,4154.16691999,N,01229.78196000,E,4,03,0.000,0.000,M,,M,,*7D
1$GPGST,013420.88,0.000,153588.843,31077.140,101.478,0.000,0.000,0.000*62
1$GPVTG,49.581,T,49.581,M,556.214,N,1030.110,K,D*15
1$GPGLL,4154.16691999,N,01229.78196000,E,013420.88,A,D*65
1$GPGGA,013420.89,4154.16691999,N,01229.78196000,E,4,03,0.000,0.000,M,,M,,*7C
1$GPGST,013420.89,0.000,153588.843,31077.140,101.478,0.000,0.000,0.000*63
1$GPVTG,49.575,T,49.575,M,556.039,N,1029.784,K,D*1B
1$GPGLL,4154.16691999,N,01229.78196000,E,013420.89,A,D*64
1$GPGGA,013420.90,4154.16691999,N,01229.78196000,E,4,03,0.000,0.000,M,,M,,*74
1$GPGST,013420.90,0.000,153588.843,31077.140,101.478,0.000,0.000,0.000*6B
1$GPVTG,49.569,T,49.569,M,555.839,N,1029.414,K,D*1A
1$GPGLL,4154.16691999,N,01229.78196000,E,013420.90,A,D*6C
1$GPGGA,013420.91,4154.16691999,N,01229.78196000,E,4,03,0.000,0.000,M,,M,,*75
1$GPGST,013420.91,0.000,153588.843,31077.140,101.478,0.000,0.000,0.000*6A
1$GPVTG,49.562,T,49.562,M,555.614,N,1028.998,K,D*13
1$GPGLL,4154.16691999,N,01229.78196000,E,013420.91,A,D*6D
1$GPGGA,013420.92,4154.16691999,N,01229.78196000,E,4,03,0.000,0.000,M,,M,,*76
1$GPGST,013420.92,0.000,153588.843,31077.140,101.478,0.000,0.000,0.000*69
1$GPVTG,49.556,T,49.556,M,555.367,N,1028.541,K,D*1A
1$GPGLL,4154.16691999,N,01229.78196000,E,013420.92,A,D*6E
1$GPGGA,013420.93,4154.16691999,N,01229.78196000,E,4,03,0.000,0.000,M,,M,,*77
1$GPGST,013420.93,0.000,153588.843,31077.140,101.478,0.000,0.000,0.000*68
1$GPVTG,49.549,T,49.549,M,555.098,N,1028.042,K,D*1F
1$GPGLL,4154.16691999,N,01229.78196000,E,013420.93,A,D*6F
1$GPGGA,013420.94,4154.16691999,N,01229.78196000,E,4,03,0.000,0.000,M,,M,,*70
1$GPGST,013420.94,0.000,153588.843,31077.140,101.478,0.000,0.000,0.000*6F
1$GPVTG,49.543,T,49.543,M,554.808,N,1027.505,K,D*16
1$GPGLL,4154.16691999,N,01229.78196000,E,013420.94,A,D*68
1$GPGGA,013420.95,4154.16691999,N,01229.78196000,E,4,03,0.000,0.000,M,,M,,*71
1$GPGST,013420.95,0.000,153588.843,31077.140,101.478,0.000,0.000,0.000*6E
1$GPVTG,49.536,T,49.536,M,554.498,N,1026.931,K,D*19
1$GPGLL,4154.16691999,N,01229.78196000,E,013420.95,A,D*69
1$GPGGA,013420.96,4154.16691999,N,01229.78196000,E,4,03,0.000,0.000,M,,M,,*72
1$GPGST,013420.96,0.000,153588.843,31077.140,101.478,0.000,0.000,0.000*6D
1$GPVTG,49.530,T,49.530,M,554.171,N,1026.325,K,D*14
1$GPGLL,4154.16691999,N,01229.78196000,E,013420.96,A,D*6A
1$GPGGA,013420.97,4154.16691999,N,01229.78196000,E,4,03,0.000,0.000,M,,M,,*73
1$GPGST,013420.97,0.000,153588.843,31077.140,101.478,0.000,0.000,0.000*6C
1$GPVTG,49.523,T,49.523,M,553.826,N,1025.685,K,D*14
1$GPGLL,4154.16691999,N,01229.78196000,E,013420.97,A,D*6B
1$GPGGA,013420.98,4154.16691999,N,01229.78196000,E,4,03,0.000,0.000,M,,M,,*7C
1$GPGST,013420.98,0.000,153588.843,31077.140,101.478,0.000,0.000,0.000*63
1$GPVTG,49.516,T,49.516,M,553.465,N,1025.017,K,D*12
1$GPGLL,4154.16691999,N,01229.78196000,E,013420.98,A,D*64
1$GPGGA,013420.99,4154.16691999,N,01229.78196000,E,4,03,0.000,0.000,M,,M,,*7D
1$GPGST,013420.99,0.000,153588.843,31077.140,101.478,0.000,0.000,0.000*62
1$GPVTG,49.510,T,49.510,M,553.089,N,1024.322,K,D*10
1$GPGLL,4154.16691999,N,01229.78196000,E,013420.99,A,D*65
1$GPGGA,013421.00,4154.16691999,N,01229.78196000,E,4,03,0.000,0.000,M,,M,,*7C
1$GPGST,013421.00,0.000,153588.843,31077.140,101.478,0.000,0.000,0.000*63
1$GPVTG,49.503,T,49.503,M,552.701,N,1023.603,K,D*17
1$GPGLL,4154.16691999,N,01229.78196000,E,013421.00,A,D*64
1$GPGGA,013421.01,4154.16691999,N,01229.78196000,E,4,03,0.000,0.000,M,,M,,*7D
1$GPGST,013421.01,0.000,153588.843,31077.140,101.478,0.000,0.000,0.000*62
1$GPVTG,49.496,T,49.496,M,552.303,N,1022.865,K,D*1E
1$GPGLL,4154.16691999,N,01229.78196000,E,013421.01,A,D*65
1$GPGGA,013421.02,4154.16691999,N,01229.78196000,E,4,03,0.000,0.000,M,,M,,*7E
1$GPGST,013421.02,0.000,153588.843,31077.140,101.478,0.000,0.000,0.000*61
1$GPVTG,49.489,T,49.489,M,551.894,N,1022.108,K,D*1A
1$GPGLL,4154.16691999,N,01229.78196000,E,013421.02,A,D*66
1$GPGGA,013421.03,4154.16691999,N,01229.78196000,E,4,03,0.000,0.000,M,,M,,*7F
1$GPGST,013421.03,0.000,153588.843,31077.140,101.478,0.000,0.000,0.000*60
1$GPVTG,49.482,T,49.482,M,551.477,N,1021.335,K,D*14
1$GPGLL,4154.16691999,N,01229.78196000,E,013421.03,A,D*67
1$GPGGA,013421.04,4154.16691999,N,01229.78196000,E,4,03,0.000,0.000,M,,M,,*78
1$GPGST,013421.04,0.000,153588.843,31077.140,101.478,0.000,0.000,0.000*67
1$GPVTG,49.475,T,49.475,M,551.054,N,1020.552,K,D*17
1$GPGLL,4154.16691999,N,01229.78196000,E,013421.04,A,D*60
1$GPGGA,013421.05,4154.16691999,N,01229.78196000,E,4,03,0.000,0.000,M,,M,,*79
1$GPGST,013421.05,0.000,153588.843,31077.140,101.478,0.000,0.000,0.000*66
1$GPVTG,49.468,T,49.468,M,550.627,N,1019.761,K,D*1C
1$GPGLL,4154.16691999,N,01229.78196000,E,013421.05,A,D*61
1$GPGGA,013421.06,4154.16691999,N,01229.78196000,E,4,03,0.000,0.000,M,,M,,*7A
1$GPGST,013421.06,0.000,153588.843,31077.140,101.478,0.000,0.000,0.000*65
1$GPVTG,49.461,T,49.461,M,550.196,N,1018.964,K,D*1B
1$GPGLL,4154.16691999,N,01229.78196000,E,013421.06,A,D*62
1$GPGGA,013421.07,4154.16691999,N,01229.78196000,E,4,03,0.000,0.000,M,,M,,*7B
1$GPGST,013421.07,0.000,153588.843,31077.140,101.478,0.000,0.000,0.000*64
1$GPVTG,49.454,T,49.454,M,549.764,N,1018.164,K,D*10
1$GPGLL,4154.16691999,N,01229.78196000,E,013421.07,A,D*63
1$GPGGA,013421.08,4154.16691999,N,01229.78196000,E,4,03,0.000,0.000,M,,M,,*74
1$GPGST,013421.08,0.000,153588.843,31077.140,101.478,0.000,0.000,0.000*6B
1$GPVTG,49.447,T,49.447,M,549.333,N,1017.366,K,D*19
1$GPGLL,4154.16691999,N,01229.78196000,E,013421.08,A,D*6C
1$GPGGA,013421.09,4154.16691999,N,01229.78196000,E,4,03,0.000,0.000,M,,M,,*75
1$GPGST,013421.09,0.000,153588.843,31077.140,101.478,0.000,0.000,0.000*6A
1$GPVTG,49.440,T,49.440,M,548.904,N,1016.570,K,D*16
1$GPGLL,4154.16691999,N,01229.78196000,E,013421.09,A,D*6D
1$GPGGA,013421.10,4154.16691999,N,01229.78196000,E,4,03,0.000,0.000,M,,M,,*7D
1$GPGST,013421.10,0.000,153588.843,31077.140,101.478,0.000,0.000,0.000*62
1$GPVTG,49.432,T,49.432,M,548.479,N,1015.783,K,D*1C
1$GPGLL,4154.16691999,N,01229.78196000,E,013421.10,A,D*65
1$GPGGA,013421.11,4154.16691999,N,01229.78196000,E,4,03,0.000,0.000,M,,M,,*7C
1$GPGST,013421.11,0.000,153588.843,31077.140,101.478,0.000,0.000,0.000*63
1$GPVTG,49.425,T,49.425,M,548.059,N,1015.006,K,D*10
1$GPGLL,4154.16691999,N,01229.78196000,E,013421.11,A,D*64
1$GPGGA,013421.12,4154.16691999,N,01229.78196000,E,4,03,0.000,0.000,M,,M,,*7F
1$GPGST,013421.12,0.000,153588.843,31077.140,101.478,0.000,0.000,0.000*60
1$GPVTG,49.418,T,49.418,M,547.647,N,1014.242,K,D*15
1$GPGLL,4154.16691999,N,01229.78196000,E,013421.12,A,D*67
1$GPGGA,013421.13,4154.16691999,N,01229.78196000,E,4,03,0.000,0.000,M,,M,,*7E
1$GPGST,013421.13,0.000,153588.843,31077.140,101.478,0.000,0.000,0.000*61
1$GPVTG,49.410,T,49.410,M,547.241,N,1013.492,K,D*1B
1$GPGLL,4154.16691999,N,01229.78196000,E,013421.13,A,D*66
1$GPGGA,013421.14,4154.16691999,N,01229.78196000,E,4,03,0.000,0.000,M,,M,,*79
1$GPGST,013421.14,0.000,153588.843,31077.140,101.478,0.000,0.000,0.000*66
1$GPVTG,49.403,T,49.403,M,546.849,N,1012.764,K,D*13
1$GPGLL,4154.16691999,N,01229.78196000,E,013421.14,A,D*61
1$GPGGA,013421.15,4154.16691999,N,01229.78196000,E,4,03,0.000,0.000,M,,M,,*78
1$GPGST,013421.15,0.000,153588.843,31077.140,101.478,0.000,0.000,0.000*67
1$GPVTG,49.395,T,49.395,M,546.467,N,1012.058,K,D*1B
1$GPGLL,4154.16691999,N,01229.78196000,E,013421.15,A,D*60
1$GPGGA,013421.16,4154.16691999,N,01229.78196000,E,4,03,0.000,0.000,M,,M,,*7B
1$GPGST,013421.16,0.000,153588.843,31077.140,101.478,0.000,0.000,0.000*64
1$GPVTG,49.388,T,49.388,M,546.099,N,1011.376,K,D*12
1$GPGLL,4154.16691999,N,01229.78196000,E,013421.16,A,D*63
1$GPGGA,013421.17,4154.16691999,N,01229.78196000,E,4,03,0.000,0.000,M,,M,,*7A
1$GPGST,013421.17,0.000,153588.843,31077.140,101.478,0.000,0.000,0.000*65
1$GPVTG,49.380,T,49.380,M,545.746,N,1010.722,K,D*10
1$GPGLL,4154.16691999,N,01229.78196000,E,013421.17,A,D*62
1$GPGGA,013421.18,4154.16691999,N,01229.78196000,E,4,03,0.000,0.000,M,,M,,*75
1$GPGST,013421.18,0.000,153588.843,31077.140,101.478,0.000,0.000,0.000*6A
1$GPVTG,49.373,T,49.373,M,545.409,N,1010.097,K,D*11
1$GPGLL,4154.16691999,N,01229.78196000,E,013421.18,A,D*6D
1$GPGGA,013421.19,4154.16691999,N,01229.78196000,E,4,03,0.000,0.000,M,,M,,*74
1$GPGST,013421.19,0.000,153588.843,31077.140,101.478,0.000,0.000,0.000*6B
1$GPVTG,49.365,T,49.365,M,545.090,N,1009.506,K,D*10
1$GPGLL,4154.16691999,N,01229.78196000,E,013421.19,A,D*6C
1$GPGGA,013421.20,4154.16691999,N,01229.78196000,E,4,03,0.000,0.000,M,,M,,*7E
1$GPGST,013421.20,0.000,153588.843,31077.140,101.478,0.000,0.000,0.000*61
1$GPVTG,49.357,T,49.357,M,544.789,N,1008.949,K,D*18
1$GPGLL,4154.16691999,N,01229.78196000,E,013421.20,A,D*66
1$GPGGA,013421.21,4154.16691999,N,01229.78196000,E,4,03,0.000,0.000,M,,M,,*7F
1$GPGST,013421.21,0.000,153588.843,31077.140,101.478,0.000,0.000,0.000*60
1$GPVTG,49.350,T,49.350,M,544.508,N,1008.430,K,D*10
1$GPGLL,4154.16691999,N,01229.78196000,E,013421.21,A,D*67
1$GPGGA,013421.22,4154.16691999,N,01229.78196000,E,4,03,0.000,0.000,M,,M,,*7C
1$GPGST,013421.22,0.000,153588.843,31077.140,101.478,0.000,0.000,0.000*63
1$GPVTG,49.342,T,49.342,M,544.247,N,1007.947,K,D*1E
1$GPGLL,4154.16691999,N,01229.78196000,E,013421.22,A,D*64
1$GPGGA,013421.23,4154.16691999,N,01229.78196000,E,4,03,0.000,0.000,M,,M,,*7D
1$GPGST,013421.23,0.000,153588.843,31077.140,101.478,0.000,0.000,0.000*62
1$GPVTG,49.334,T,49.334,M,544.010,N,1007.507,K,D*16
1$GPGLL,4154.16691999,N,01229.78196000,E,013421.23,A,D*65
1$GPGGA,013421.24,4154.16691999,N,01229.78196000,E,4,03,0.000,0.000,M,,M,,*7A
1$GPGST,013421.24,0.000,153588.843,31077.140,101.478,0.000,0.000,0.000*65
1$GPVTG,49.326,T,49.326,M,543.795,N,1007.109,K,D*11
1$GPGLL,4154.16691999,N,01229.78196000,E,013421.24,A,D*62
1$GPGGA,013421.25,4154.16691999,N,01229.78196000,E,4,03,0.000,0.000,M,,M,,*7B
1$GPGST,013421.25,0.000,153588.843,31077.140,101.478,0.000,0.000,0.000*64
1$GPVTG,49.318,T,49.318,M,543.603,N,1006.754,K,D*10
1$GPGLL,4154.16691999,N,01229.78196000,E,013421.25,A,D*63
1$GPGGA,013421.26,4154.16691999,N,01229.78196000,E,4,03,0.000,0.000,M,,M,,*78
1$GPGST,013421.26,0.000,153588.843,31077.140,101.478,0.000,0.000,0.000*67
1$GPVTG,49.311,T,49.311,M,543.436,N,1006.444,K,D*16
1$GPGLL,4154.16691999,N,01229.78196000,E,013421.26,A,D*60
1$GPGGA,013421.27,4154.16691999,N,01229.78196000,E,4,03,0.000,0.000,M,,M,,*79
1$GPGST,013421.27,0.000,153588.843,31077.140,101.478,0.000,0.000,0.000*66
1$GPVTG,49.303,T,49.303,M,543.294,N,1006.180,K,D*15
1$GPGLL,4154.16691999,N,01229.78196000,E,013421.27,A,D*61
1$GPGGA,013421.28,4154.16691999,N,01229.78196000,E,4,03,0.000,0.000,M,,M,,*76
1$GPGST,013421.28,0.000,153588.843,31077.140,101.478,0.000,0.000,0.000*69
1$GPVTG,49.294,T,49.294,M,543.177,N,1005.964,K,D*1A
1$GPGLL,4154.16691999,N,01229.78196000,E,013421.28,A,D*6E
1$GPGGA,013421.29,4154.16691999,N,01229.78196000,E,4,03,0.000,0.000,M,,M,,*77
1$GPGST,013421.29,0.000,153588.843,31077.140,101.478,0.000,0.000,0.000*68
1$GPVTG,49.286,T,49.286,M,543.086,N,1005.796,K,D*16
1$GPGLL,4154.16691999,N,01229.78196000,E,013421.29,A,D*6F
1$GPGGA,013421.30,4154.16691999,N,01229.78196000,E,4,03,0.000,0.000,M,,M,,*7F
1$GPGST,013421.30,0.000,153588.843,31077.140,101.478,0.000,0.000,0.000*60
1$GPVTG,49.278,T,49.278,M,543.022,N,1005.677,K,D*16
1$GPGLL,4154.16691999,N,01229.78196000,E,013421.30,A,D*67
1$GPGGA,013421.31,4154.16691999,N,01229.78196000,E,4,03,0.000,0.000,M,,M,,*7E
1$GPGST,013421.31,0.000,153588.843,31077.140,101.478,0.000,0.000,0.000*61
1$GPVTG,49.270,T,49.270,M,542.984,N,1005.607,K,D*15
1$GPGLL,4154.16691999,N,01229.78196000,E,013421.31,A,D*66
1$GPGGA,013421.32,4154.16691999,N,01229.78196000,E,4,03,0.000,0.000,M,,M,,*7D
1$GPGST,013421.32,0.000,153588.843,31077.140,101.478,0.000,0.000,0.000*62
1$GPVTG,49.262,T,49.262,M,542.973,N,1005.586,K,D*17
1$GPGLL,4154.16691999,N,01229.78196000,E,013421.32,A,D*65
1$GPGGA,013421.33,4154.16691999,N,01229.78196000,E,4,03,0.000,0.000,M,,M,,*7C
1$GPGST,013421.33,0.000,153588.843,31077.140,101.478,0.000,0.000,0.000*63
1$GPVTG,49.254,T,49.254,M,542.989,N,1005.615,K,D*1B
1$GPGLL,4154.16691999,N,01229.78196000,E,013421.33,A,D*64
1$GPGGA,013421.34,4154.16691999,N,01229.78196000,E,4,03,0.000,0.000,M,,M,,*7B
1$GPGST,013421.34,0.000,153588.843,31077.140,101.478,0.000,0.000,0.000*64
1$GPVTG,49.245,T,49.245,M,543.031,N,1005.694,K,D*19
1$GPGLL,4154.16691999,N,01229.78196000,E,013421.34,A,D*63
1$GPGGA,013421.35,4154.16691999,N,01229.78196000,E,4,03,0.000,0.000,M,,M,,*7A
1$GPGST,013421.35,0.000,153588.843,31077.140,101.478,0.000,0.000,0.000*65
1$GPVTG,49.237,T,49.237,M,543.100,N,1005.821,K,D*1A
1$GPGLL,4154.16691999,N,01229.78196000,E,013421.35,A,D*62
1$GPGGA,013421.36,4154.16691999,N,01229.78196000,E,4,03,0.000,0.000,M,,M,,*79
1$GPGST,013421.36,0.000,153588.843,31077.140,101.478,0.000,0.000,0.000*66
1$GPVTG,49.229,T,49.229,M,543.195,N,1005.998,K,D*15
1$GPGLL,4154.16691999,N,01229.78196000,E,013421.36,A,D*61
1$GPGGA,013421.37,4154.16691999,N,01229.78196000,E,4,03,0.000,0.000,M,,M,,*78
1$GPGST,013421.37,0.000,153588.843,31077.140,101.478,0.000,0.000,0.000*67
1$GPVTG,49.220,T,49.220,M,543.316,N,1006.222,K,D*15
1$GPGLL,4154.16691999,N,01229.78196000,E,013421.37,A,D*60
1$GPGGA,013421.38,4154.16691999,N,01229.78196000,E,4,03,0.000,0.000,M,,M,,*77
1$GPGST,013421.38,0.000,153588.843,31077.140,101.478,0.000,0.000,0.000*68
1$GPVTG,49.212,T,49.212,M,543.463,N,1006.494,K,D*1B
1$GPGLL,4154.16691999,N,01229.78196000,E,013421.38,A,D*6F
1$GPGGA,013421.39,4154.16691999,N,01229.78196000,E,4,03,0.000,0.000,M,,M,,*76
1$GPGST,013421.39,0.000,153588.843,31077.140,101.478,0.000,0.000,0.000*69
1$GPVTG,49.203,T,49.203,M,543.635,N,1006.812,K,D*18
1$GPGLL,4154.16691999,N,01229.78196000,E,013421.39,A,D*6E
1$GPGGA,013421.40,4154.16691999,N,01229.78196000,E,4,03,0.000,0.000,M,,M,,*78
1$GPGST,013421.40,0.000,153588.843,31077.140,101.478,0.000,0.000,0.000*67
1$GPVTG,49.195,T,49.195,M,543.831,N,1007.175,K,D*1B
1$GPGLL,4154.16691999,N,01229.78196000,E,013421.40,A,D*60
1$GPGGA,013421.41,4154.16691999,N,01229.78196000,E,4,03,0.000,0.000,M,,M,,*79
1$GPGST,013421.41,0.000,153588.843,31077.140,101.478,0.000,0.000,0.000*66
1$GPVTG,49.186,T,49.186,M,544.050,N,1007.581,K,D*1C
1$GPGLL,4154.16691999,N,01229.78196000,E,013421.41,A,D*61
1$GPGGA,013421.42,4154.16691999,N,01229.78196000,E,4,03,0.000,0.000,M,,M,,*7A
1$GPGST,013421.42,0.000,153588.843,31077.140,101.478,0.000,0.000,0.000*65
1$GPVTG,49.178,T,49.178,M,544.292,N,1008.029,K,D*18
1$GPGLL,4154.16691999,N,01229.78196000,E,013421.42,A,D*62
1$GPGGA,013421.43,4154.16691999,N,01229.78196000,E,4,03,0.000,0.000,M,,M,,*7B
1$GPGST,013421.43,0.000,153588.843,31077.140,101.478,0.000,0.000,0.000*64
1$GPVTG,49.169,T,49.169,M,544.556,N,1008.518,K,D*10
1$GPGLL,4154.16691999,N,01229.78196000,E,013421.43,A,D*63
1$GPGGA,013421.44,4154.16691999,N,01229.78196000,E,4,03,0.000,0.000,M,,M,,*7C
1$GPGST,013421.44,0.000,153588.843,31077.140,101.478,0.000,0.000,0.000*63
1$GPVTG,49.160,T,49.160,M,544.840,N,1009.045,K,D*16
1$GPGLL,4154.16691999,N,01229.78196000,E,013421.44,A,D*64
1$GPGGA,013421.45,4154.16691999,N,01229.78196000,E,4,03,0.000,0.000,M,,M,,*7D
1$GPGST,013421.45,0.000,153588.843,31077.140,101.478,0.000,0.000,0.000*62
1$GPVTG,49.152,T,49.152,M,545.144,N,1009.608,K,D*15
1$GPGLL,4154.16691999,N,01229.78196000,E,013421.45,A,D*65
1$GPGGA,013421.46,4154.16691999,N,01229.78196000,E,4,03,0.000,0.000,M,,M,,*7E
1$GPGST,013421.46,0.000,153588.843,31077.140,101.478,0.000,0.000,0.000*61
1$GPVTG,49.143,T,49.143,M,545.467,N,1010.206,K,D*13
1$GPGLL,4154.16691999,N,01229.78196000,E,013421.46,A,D*66
1$GPGGA,013421.47,4154.16691999,N,01229.78196000,E,4,03,0.000,0.000,M,,M,,*7F
1$GPGST,013421.47,0.000,153588.843,31077.140,101.478,0.000,0.000,0.000*60
1$GPVTG,49.134,T,49.134,M,545.807,N,1010.835,K,D*13
1$GPGLL,4154.16691999,N,01229.78196000,E,013421.47,A,D*67
1$GPGGA,013421.48,4154.16691999,N,01229.78196000,E,4,03,0.000,0.000,M,,M,,*70
1$GPGST,013421.48,0.000,153588.843,31077.140,101.478,0.000,0.000,0.000*6F
1$GPVTG,49.125,T,49.125,M,546.163,N,1011.494,K,D*1D
1$GPGLL,4154.16691999,N,01229.78196000,E,013421.48,A,D*68
1$GPGGA,013421.49,4154.16691999,N,01229.78196000,E,4,03,0.000,0.000,M,,M,,*71
1$GPGST,013421.49,0.000,153588.843,31077.140,101.478,0.000,0.000,0.000*6E
1$GPVTG,49.116,T,49.116,M,546.533,N,1012.180,K,D*1F
1$GPGLL,4154.16691999,N,01229.78196000,E,013421.49,A,D*69
1$GPGGA,013421.50,4154.16691999,N,01229.78196000,E,4,03,0.000,0.000,M,,M,,*79
1$GPGST,013421.50,0.000,153588.843,31077.140,101.478,0.000,0.000,0.000*66
1$GPVTG,49.107,T,49.107,M,546.917,N,1012.891,K,D*1C
1$GPGLL,4154.16691999,N,01229.78196000,E,013421.50,A,D*61
1$GPGGA,013421.51,4154.16691999,N,01229.78196000,E,4,03,0.000,0.000,M,,M,,*78
1$GPGST,013421.51,0.000,153588.843,31077.140,101.478,0.000,0.000,0.000*67
1$GPVTG,49.098,T,49.098,M,547.312,N,1013.622,K,D*15
1$GPGLL,4154.16691999,N,01229.78196000,E,013421.51,A,D*60
1$GPGGA,013421.52,4154.16691999,N,01229.78196000,E,4,03,0.000,0.000,M,,M,,*7B
1$GPGST,013421.52,0.000,153588.843,31077.140,101.478,0.000,0.000,0.000*64
1$GPVTG,49.089,T,49.089,M,547.718,N,1014.374,K,D*1A
1$GPGLL,4154.16691999,N,01229.78196000,E,013421.52,A,D*63
1$GPGGA,013421.53,4154.16691999,N,01229.78196000,E,4,03,0.000,0.000,M,,M,,*7A
1$GPGST,013421.53,0.000,153588.843,31077.140,101.478,0.000,0.000,0.000*65
1$GPVTG,49.080,T,49.080,M,548.131,N,1015.140,K,D*1C
1$GPGLL,4154.16691999,N,01229.78196000,E,013421.53,A,D*62
1$GPZDA,013421.54,,,,,*62
1$GPGGA,013421.54,4154.16691999,N,01229.78196000,E,4,03,0.000,0.000,M,,M,,*7D
1$GPGST,013421.54,0.000,153588.843,31077.140,101.478,0.000,0.000,0.000*62
1$GPVTG,49.071,T,49.071,M,548.553,N,1015.920,K,D*12
1$GPGLL,4154.16691999,N,01229.78196000,E,013421.54,A,D*65
1$GPGGA,013421.55,4154.16691999,N,01229.78196000,E,4,03,0.000,0.000,M,,M,,*7C
1$GPGST,013421.55,0.000,153588.843,31077.140,101.478,0.000,0.000,0.000*63
1$GPVTG,49.062,T,49.062,M,548.979,N,1016.709,K,D*10
1$GPGLL,4154.16691999,N,01229.78196000,E,013421.55,A,D*64
1$GPGGA,013421.56,4154.16691999,N,01229.78196000,E,4,03,0.000,0.000,M,,M,,*7F
1$GPGST,013421.56,0.000,153588.843,31077.140,101.478,0.000,0.000,0.000*60
1$GPVTG,49.053,T,49.053,M,549.414,N,1017.515,K,D*19
1$GPGLL,4154.16691999,N,01229.78196000,E,013421.56,A,D*67
1$GPGGA,013421.57,4154.16691999,N,01229.78196000,E,4,03,0.000,0.000,M,,M,,*7E
1$GPGST,013421.57,0.000,153588.843,31077.140,101.478,0.000,0.000,0.000*61
1$GPVTG,49.044,T,49.044,M,549.849,N,1018.320,K,D*12
1$GPGLL,4154.16691999,N,01229.78196000,E,013421.57,A,D*66
1$GPGGA,013421.58,4154.16691999,N,01229.78196000,E,4,03,0.000,0.000,M,,M,,*71
1$GPGST,013421.58,0.000,153588.843,31077.140,101.478,0.000,0.000,0.000*6E
1$GPVTG,49.034,T,49.034,M,550.276,N,1019.112,K,D*1E
1$GPGLL,4154.16691999,N,01229.78196000,E,013421.58,A,D*69
1$GPGGA,013421.59,4154.16691999,N,01229.78196000,E,4,03,0.000,0.000,M,,M,,*70
1$GPGST,013421.59,0.000,153588.843,31077.140,101.478,0.000,0.000,0.000*6F
1$GPVTG,49.025,T,49.025,M,550.706,N,1019.908,K,D*1F
1$GPGLL,4154.16691999,N,01229.78196000,E,013421.59,A,D*68
1$GPGGA,013421.60,4154.16691999,N,01229.78196000,E,4,03,0.000,0.000,M,,M,,*7A
1$GPGST,013421.60,0.000,153588.843,31077.140,101.478,0.000,0.000,0.000*65
1$GPVTG,49.016,T,49.016,M,551.134,N,1020.701,K,D*14
1$GPGLL,4154.16691999,N,01229.78196000,E,013421.60,A,D*62
1$GPGGA,013421.61,4154.16691999,N,01229.78196000,E,4,03,0.000,0.000,M,,M,,*7B
1$GPGST,013421.61,0.000,153588.843,31077.140,101.478,0.000,0.000,0.000*64
1$GPVTG,49.006,T,49.006,M,551.555,N,1021.480,K,D*1C
1$GPGLL,4154.16691999,N,01229.78196000,E,013421.61,A,D*63
1$GPGGA,013421.62,4154.16691999,N,01229.78196000,E,4,03,0.000,0.000,M,,M,,*78
1$GPGST,013421.62,0.000,153588.843,31077.140,101.478,0.000,0.000,0.000*67
1$GPVTG,48.997,T,48.997,M,551.973,N,1022.254,K,D*18
1$GPGLL,4154.16691999,N,01229.78196000,E,013421.62,A,D*60
1$GPGGA,013421.63,4154.16691999,N,01229.78196000,E,4,03,0.000,0.000,M,,M,,*79
1$GPGST,013421.63,0.000,153588.843,31077.140,101.478,0.000,0.000,0.000*66
1$GPVTG,48.988,T,48.988,M,552.377,N,1023.003,K,D*14
1$GPGLL,4154.16691999,N,01229.78196000,E,013421.63,A,D*61
1$GPGGA,013421.64,4154.16691999,N,01229.78196000,E,4,03,0.000,0.000,M,,M,,*7E
1$GPGST,013421.64,0.000,153588.843,31077.140,101.478,0.000,0.000,0.000*61
1$GPVTG,48.978,T,48.978,M,552.773,N,1023.736,K,D*15
1$GPGLL,4154.16691999,N,01229.78196000,E,013421.64,A,D*66
1$GPGGA,013421.65,4154.16691999,N,01229.78196000,E,4,03,0.000,0.000,M,,M,,*7F
1$GPGST,013421.65,0.000,153588.843,31077.140,101.478,0.000,0.000,0.000*60
1$GPVTG,48.969,T,48.969,M,553.157,N,1024.447,K,D*16
1$GPGLL,4154.16691999,N,01229.78196000,E,013421.65,A,D*67
1$GPGGA,013421.66,4154.16691999,N,01229.78196000,E,4,03,0.000,0.000,M,,M,,*7C
1$GPGST,013421.66,0.000,153588.843,31077.140,101.478,0.000,0.000,0.000*63
1$GPVTG,48.959,T,48.959,M,553.530,N,1025.138,K,D*1F
1$GPGLL,4154.16691999,N,01229.78196000,E,013421.66,A,D*64
1$GPGGA,013421.67,4154.16691999,N,01229.78196000,E,4,03,0.000,0.000,M,,M,,*7D
1$GPGST,013421.67,0.000,153588.843,31077.140,101.478,0.000,0.000,0.000*62
1$GPVTG,48.949,T,48.949,M,553.888,N,1025.801,K,D*12
1$GPGLL,4154.16691999,N,01229.78196000,E,013421.67,A,D*65
1$GPGGA,013421.68,4154.16691999,N,01229.78196000,E,4,03,0.000,0.000,M,,M,,*72
1$GPGST,013421.68,0.000,153588.843,31077.140,101.478,0.000,0.000,0.000*6D
1$GPVTG,48.940,T,48.940,M,554.230,N,1026.435,K,D*14
1$GPGLL,4154.16691999,N,01229.78196000,E,013421.68,A,D*6A
1$GPGGA,013421.69,4154.16691999,N,01229.78196000,E,4,03,0.000,0.000,M,,M,,*73
1$GPGST,013421.69,0.000,153588.843,31077.140,101.478,0.000,0.000,0.000*6C
1$GPVTG,48.930,T,48.930,M,554.555,N,1027.036,K,D*16
1$GPGLL,4154.16691999,N,01229.78196000,E,013421.69,A,D*6B
1$GPGGA,013421.70,4154.16691999,N,01229.78196000,E,4,03,0.000,0.000,M,,M,,*7B
1$GPGST,013421.70,0.000,153588.843,31077.140,101.478,0.000,0.000,0.000*64
1$GPVTG,48.920,T,48.920,M,554.863,N,1027.607,K,D*1A
1$GPGLL,4154.16691999,N,01229.78196000,E,013421.70,A,D*63
1$GPGGA,013421.71,4154.16691999,N,01229.78196000,E,4,03,0.000,0.000,M,,M,,*7A
1$GPGST,013421.71,0.000,153588.843,31077.140,101.478,0.000,0.000,0.000*65
1$GPVTG,48.911,T,48.911,M,555.147,N,1028.133,K,D*1B
1$GPGLL,4154.16691999,N,01229.78196000,E,013421.71,A,D*62
1$GPGGA,013421.72,4154.16691999,N,01229.78196000,E,4,03,0.000,0.000,M,,M,,*79
1$GPGST,013421.72,0.000,153588.843,31077.140,101.478,0.000,0.000,0.000*66
1$GPVTG,48.901,T,48.901,M,555.412,N,1028.624,K,D*1F
1$GPGLL,4154.16691999,N,01229.78196000,E,013421.72,A,D*61
1$GPGGA,013421.73,4154.16691999,N,01229.78196000,E,4,03,0.000,0.000,M,,M,,*78
1$GPGST,013421.73,0.000,153588.843,31077.140,101.478,0.000,0.000,0.000*67
1$GPVTG,48.891,T,48.891,M,555.657,N,1029.078,K,D*12
1$GPGLL,4154.16691999,N,01229.78196000,E,013421.73,A,D*60
1=~=~=~=~=~=~=~=~=~=~=~= PuTTY log 2020.09.24 13:02:23 =~=~=~=~=~=~=~=~=~=~=~=
1$GPGGA,013421.74,4154.16691999,N,01229.78196000,E,4,03,0.000,0.000,M,,M,,*7F
1$GPGST,013421.74,0.000,153588.843,31077.140,101.478,0.000,0.000,0.000*60
1$GPVTG,48.881,T,48.881,M,555.878,N,1029.487,K,D*15
1$GPGLL,4154.16691999,N,01229.78196000,E,013421.74,A,D*67
1$GPGGA,013421.75,4154.16691999,N,01229.78196000,E,4,03,0.000,0.000,M,,M,,*7E
1$GPGST,013421.75,0.000,153588.843,31077.140,101.478,0.000,0.000,0.000*61
1$GPVTG,48.871,T,48.871,M,556.074,N,1029.849,K,D*1C
1$GPGLL,4154.16691999,N,01229.78196000,E,013421.75,A,D*66
1$GPGGA,013421.76,4154.16691999,N,01229.78196000,E,4,03,0.000,0.000,M,,M,,*7D
1$GPGST,013421.76,0.000,153588.843,31077.140,101.478,0.000,0.000,0.000*62
1$GPVTG,48.861,T,48.861,M,556.245,N,1030.166,K,D*10
1$GPGLL,4154.16691999,N,01229.78196000,E,013421.76,A,D*65
1$GPGGA,013421.77,4154.16691999,N,01229.78196000,E,4,03,0.000,0.000,M,,M,,*7C
1$GPGST,013421.77,0.000,153588.843,31077.140,101.478,0.000,0.000,0.000*63
1$GPVTG,48.851,T,48.851,M,556.389,N,1030.434,K,D*13
1$GPGLL,4154.16691999,N,01229.78196000,E,013421.77,A,D*64
1$GPGGA,013421.78,4154.16691999,N,01229.78196000,E,4,03,0.000,0.000,M,,M,,*73
1$GPGST,013421.78,0.000,153588.843,31077.140,101.478,0.000,0.000,0.000*6C
1$GPVTG,48.841,T,48.841,M,556.509,N,1030.656,K,D*1B
1$GPGLL,4154.16691999,N,01229.78196000,E,013421.78,A,D*6B
1$GPGGA,013421.79,4154.16691999,N,01229.78196000,E,4,03,0.000,0.000,M,,M,,*72
1$GPGST,013421.79,0.000,153588.843,31077.140,101.478,0.000,0.000,0.000*6D
1$GPVTG,48.831,T,48.831,M,556.602,N,1030.828,K,D*14
1$GPGLL,4154.16691999,N,01229.78196000,E,013421.79,A,D*6A
1$GPGGA,013421.80,4154.16691999,N,01229.78196000,E,4,03,0.000,0.000,M,,M,,*74
1$GPGST,013421.80,0.000,153588.843,31077.140,101.478,0.000,0.000,0.000*6B
1$GPVTG,48.821,T,48.821,M,556.667,N,1030.948,K,D*10
1$GPGLL,4154.16691999,N,01229.78196000,E,013421.80,A,D*6C
1$GPGGA,013421.81,4154.16691999,N,01229.78196000,E,4,03,0.000,0.000,M,,M,,*75
1$GPGST,013421.81,0.000,153588.468,31078.162,101.481,0.000,0.000,0.000*66
1$GPVTG,48.811,T,48.811,M,556.705,N,1031.019,K,D*19
1$GPGLL,4154.16691999,N,01229.78196000,E,013421.81,A,D*6D
1$GPGGA,013421.82,4154.16691999,N,01229.78196000,E,4,03,0.000,0.000,M,,M,,*76
1$GPGST,013421.82,0.000,153588.468,31078.162,101.481,0.000,0.000,0.000*65
1$GPVTG,48.801,T,48.801,M,556.717,N,1031.040,K,D*16
1$GPGLL,4154.16691999,N,01229.78196000,E,013421.82,A,D*6E
1$GPGGA,013421.83,4154.16691999,N,01229.78196000,E,4,03,0.000,0.000,M,,M,,*77
1$GPGST,013421.83,0.000,153588.468,31078.162,101.481,0.000,0.000,0.000*64
1$GPVTG,48.790,T,48.790,M,556.700,N,1031.010,K,D*15
1$GPGLL,4154.16691999,N,01229.78196000,E,013421.83,A,D*6F
1$GPGGA,013421.84,4154.16691999,N,01229.78196000,E,4,03,0.000,0.000,M,,M,,*70
1$GPGST,013421.84,0.000,153588.468,31078.162,101.481,0.000,0.000,0.000*63
1$GPVTG,48.780,T,48.780,M,556.657,N,1030.929,K,D*14
1$GPGLL,4154.16691999,N,01229.78196000,E,013421.84,A,D*68
1$GPGGA,013421.85,4154.16691999,N,01229.78196000,E,4,03,0.000,0.000,M,,M,,*71
1$GPGST,013421.85,0.000,153588.468,31078.162,101.481,0.000,0.000,0.000*62
1$GPVTG,48.770,T,48.770,M,556.586,N,1030.798,K,D*1F
1$GPGLL,4154.16691999,N,01229.78196000,E,013421.85,A,D*69
1$GPGGA,013421.86,4154.16691999,N,01229.78196000,E,4,03,0.000,0.000,M,,M,,*72
1$GPGST,013421.86,0.000,153588.468,31078.162,101.481,0.000,0.000,0.000*61
1$GPVTG,48.760,T,48.760,M,556.489,N,1030.618,K,D*18
1$GPGLL,4154.16691999,N,01229.78196000,E,013421.86,A,D*6A
1$GPGGA,013421.87,4154.16691999,N,01229.78196000,E,4,03,0.000,0.000,M,,M,,*73
1$GPGST,013421.87,0.000,153588.468,31078.162,101.481,0.000,0.000,0.000*60
1$GPVTG,48.749,T,48.749,M,556.364,N,1030.387,K,D*1F
1$GPGLL,4154.16691999,N,01229.78196000,E,013421.87,A,D*6B
1$GPGGA,013421.88,4154.16691999,N,01229.78196000,E,4,03,0.000,0.000,M,,M,,*7C
1$GPGST,013421.88,0.000,153588.468,31078.162,101.481,0.000,0.000,0.000*6F
1$GPVTG,48.739,T,48.739,M,556.214,N,1030.109,K,D*1D
1$GPGLL,4154.16691999,N,01229.78196000,E,013421.88,A,D*64
1$GPGGA,013421.89,4154.16691999,N,01229.78196000,E,4,03,0.000,0.000,M,,M,,*7D
1$GPGST,013421.89,0.000,153588.468,31078.162,101.481,0.000,0.000,0.000*6E
1$GPVTG,48.728,T,48.728,M,556.039,N,1029.785,K,D*1A
1$GPGLL,4154.16691999,N,01229.78196000,E,013421.89,A,D*65
1$GPGGA,013421.90,4154.16691999,N,01229.78196000,E,4,03,0.000,0.000,M,,M,,*75
1$GPGST,013421.90,0.000,153588.468,31078.162,101.481,0.000,0.000,0.000*66
1$GPVTG,48.718,T,48.718,M,555.839,N,1029.414,K,D*1A
1$GPGLL,4154.16691999,N,01229.78196000,E,013421.90,A,D*6D
1$GPGGA,013421.91,4154.16691999,N,01229.78196000,E,4,03,0.000,0.000,M,,M,,*74
1$GPGST,013421.91,0.000,153588.468,31078.162,101.481,0.000,0.000,0.000*67
1$GPVTG,48.707,T,48.707,M,555.614,N,1028.998,K,D*13
1$GPGLL,4154.16691999,N,01229.78196000,E,013421.91,A,D*6C
1$GPGGA,013421.92,4154.16691999,N,01229.78196000,E,4,03,0.000,0.000,M,,M,,*77
1$GPGST,013421.92,0.000,153588.468,31078.162,101.481,0.000,0.000,0.000*64
1$GPVTG,48.697,T,48.697,M,555.367,N,1028.541,K,D*1A
1$GPGLL,4154.16691999,N,01229.78196000,E,013421.92,A,D*6F
1$GPGGA,013421.93,4154.16691999,N,01229.78196000,E,4,03,0.000,0.000,M,,M,,*76
1$GPGST,013421.93,0.000,153588.468,31078.162,101.481,0.000,0.000,0.000*65
1$GPVTG,48.686,T,48.686,M,555.098,N,1028.042,K,D*1F
1$GPGLL,4154.16691999,N,01229.78196000,E,013421.93,A,D*6E
1$GPGGA,013421.94,4154.16691999,N,01229.78196000,E,4,03,0.000,0.000,M,,M,,*71
1$GPGST,013421.94,0.000,153588.468,31078.162,101.481,0.000,0.000,0.000*62
1$GPVTG,48.676,T,48.676,M,554.808,N,1027.505,K,D*16
1$GPGLL,4154.16691999,N,01229.78196000,E,013421.94,A,D*69
1$GPGGA,013421.95,4154.16691999,N,01229.78196000,E,4,03,0.000,0.000,M,,M,,*70
1$GPGST,013421.95,0.000,153588.468,31078.162,101.481,0.000,0.000,0.000*63
1$GPVTG,48.665,T,48.665,M,554.499,N,1026.932,K,D*1B
1$GPGLL,4154.16691999,N,01229.78196000,E,013421.95,A,D*68
1$GPGGA,013421.96,4154.16691999,N,01229.78196000,E,4,03,0.000,0.000,M,,M,,*73
1$GPGST,013421.96,0.000,153588.468,31078.162,101.481,0.000,0.000,0.000*60
1$GPVTG,48.654,T,48.654,M,554.171,N,1026.325,K,D*14
1$GPGLL,4154.16691999,N,01229.78196000,E,013421.96,A,D*6B
1$GPGGA,013421.97,4154.16691999,N,01229.78196000,E,4,03,0.000,0.000,M,,M,,*72
1$GPGST,013421.97,0.000,153588.468,31078.162,101.481,0.000,0.000,0.000*61
1$GPVTG,48.643,T,48.643,M,553.825,N,1025.685,K,D*17
1$GPGLL,4154.16691999,N,01229.78196000,E,013421.97,A,D*6A
1$GPGGA,013421.98,4154.16691999,N,01229.78196000,E,4,03,0.000,0.000,M,,M,,*7D
1$GPGST,013421.98,0.000,153588.468,31078.162,101.481,0.000,0.000,0.000*6E
1$GPVTG,48.633,T,48.633,M,553.465,N,1025.017,K,D*12
1$GPGLL,4154.16691999,N,01229.78196000,E,013421.98,A,D*65
1$GPGGA,013421.99,4154.16691999,N,01229.78196000,E,4,03,0.000,0.000,M,,M,,*7C
1$GPGST,013421.99,0.000,153588.468,31078.162,101.481,0.000,0.000,0.000*6F
1$GPVTG,48.622,T,48.622,M,553.090,N,1024.323,K,D*19
1$GPGLL,4154.16691999,N,01229.78196000,E,013421.99,A,D*64
1$GPGGA,013422.00,4154.16691999,N,01229.78196000,E,4,03,0.000,0.000,M,,M,,*7F
1$GPGST,013422.00,0.000,153588.468,31078.162,101.481,0.000,0.000,0.000*6C
1$GPVTG,48.611,T,48.611,M,552.701,N,1023.603,K,D*17
1$GPGLL,4154.16691999,N,01229.78196000,E,013422.00,A,D*67
1$GPGGA,013422.01,4154.16691999,N,01229.78196000,E,4,03,0.000,0.000,M,,M,,*7E
1$GPGST,013422.01,0.000,153588.468,31078.162,101.481,0.000,0.000,0.000*6D
1$GPVTG,48.600,T,48.600,M,552.302,N,1022.864,K,D*1E
1$GPGLL,4154.16691999,N,01229.78196000,E,013422.01,A,D*66
1$GPGGA,013422.02,4154.16691999,N,01229.78196000,E,4,03,0.000,0.000,M,,M,,*7D
1$GPGST,013422.02,0.000,153588.468,31078.162,101.481,0.000,0.000,0.000*6E
1$GPVTG,48.589,T,48.589,M,551.894,N,1022.108,K,D*1A
1$GPGLL,4154.16691999,N,01229.78196000,E,013422.02,A,D*65
1$GPGGA,013422.03,4154.16691999,N,01229.78196000,E,4,03,0.000,0.000,M,,M,,*7C
1$GPGST,013422.03,0.000,153588.468,31078.162,101.481,0.000,0.000,0.000*6F
1$GPVTG,48.578,T,48.578,M,551.477,N,1021.336,K,D*17
1$GPGLL,4154.16691999,N,01229.78196000,E,013422.03,A,D*64
1$GPGGA,013422.04,4154.16691999,N,01229.78196000,E,4,03,0.000,0.000,M,,M,,*7B
1$GPGST,013422.04,0.000,153588.468,31078.162,101.481,0.000,0.000,0.000*68
1$GPVTG,48.567,T,48.567,M,551.054,N,1020.553,K,D*16
1$GPGLL,4154.16691999,N,01229.78196000,E,013422.04,A,D*63
1$GPGGA,013422.05,4154.16691999,N,01229.78196000,E,4,03,0.000,0.000,M,,M,,*7A
1$GPGST,013422.05,0.000,153588.468,31078.162,101.481,0.000,0.000,0.000*69
1$GPVTG,48.556,T,48.556,M,550.626,N,1019.760,K,D*1C
1$GPGLL,4154.16691999,N,01229.78196000,E,013422.05,A,D*62
1$GPGGA,013422.06,4154.16691999,N,01229.78196000,E,4,03,0.000,0.000,M,,M,,*79
1$GPGST,013422.06,0.000,153588.468,31078.162,101.481,0.000,0.000,0.000*6A
1$GPVTG,48.545,T,48.545,M,550.196,N,1018.963,K,D*1C
1$GPGLL,4154.16691999,N,01229.78196000,E,013422.06,A,D*61
1$GPGGA,013422.07,4154.16691999,N,01229.78196000,E,4,03,0.000,0.000,M,,M,,*78
1$GPGST,013422.07,0.000,153588.468,31078.162,101.481,0.000,0.000,0.000*6B
1$GPVTG,48.534,T,48.534,M,549.765,N,1018.164,K,D*11
1$GPGLL,4154.16691999,N,01229.78196000,E,013422.07,A,D*60
1$GPGGA,013422.08,4154.16691999,N,01229.78196000,E,4,03,0.000,0.000,M,,M,,*77
1$GPGST,013422.08,0.000,153588.468,31078.162,101.481,0.000,0.000,0.000*64
1$GPVTG,48.523,T,48.523,M,549.333,N,1017.365,K,D*1A
1$GPGLL,4154.16691999,N,01229.78196000,E,013422.08,A,D*6F
1$GPGGA,013422.09,4154.16691999,N,01229.78196000,E,4,03,0.000,0.000,M,,M,,*76
1$GPGST,013422.09,0.000,153588.468,31078.162,101.481,0.000,0.000,0.000*65
1$GPVTG,48.512,T,48.512,M,548.904,N,1016.570,K,D*16
1$GPGLL,4154.16691999,N,01229.78196000,E,013422.09,A,D*6E
1$GPGGA,013422.10,4154.16691999,N,01229.78196000,E,4,03,0.000,0.000,M,,M,,*7E
1$GPGST,013422.10,0.000,153588.468,31078.162,101.481,0.000,0.000,0.000*6D
1$GPVTG,48.501,T,48.501,M,548.479,N,1015.783,K,D*1C
1$GPGLL,4154.16691999,N,01229.78196000,E,013422.10,A,D*66
1$GPGGA,013422.11,4154.16691999,N,01229.78196000,E,4,03,0.000,0.000,M,,M,,*7F
1$GPGST,013422.11,0.000,153588.468,31078.162,101.481,0.000,0.000,0.000*6C
1$GPVTG,48.489,T,48.489,M,548.059,N,1015.006,K,D*10
1$GPGLL,4154.16691999,N,01229.78196000,E,013422.11,A,D*67
1$GPGGA,013422.12,4154.16691999,N,01229.78196000,E,4,03,0.000,0.000,M,,M,,*7C
1$GPGST,013422.12,0.000,153588.468,31078.162,101.481,0.000,0.000,0.000*6F
1$GPVTG,48.478,T,48.478,M,547.647,N,1014.242,K,D*15
1$GPGLL,4154.16691999,N,01229.78196000,E,013422.12,A,D*64
1$GPGGA,013422.13,4154.16691999,N,01229.78196000,E,4,03,0.000,0.000,M,,M,,*7D
1$GPGST,013422.13,0.000,153588.468,31078.162,101.481,0.000,0.000,0.000*6E
1$GPVTG,48.467,T,48.467,M,547.243,N,1013.494,K,D*1F
1$GPGLL,4154.16691999,N,01229.78196000,E,013422.13,A,D*65
1$GPGGA,013422.14,4154.16691999,N,01229.78196000,E,4,03,0.000,0.000,M,,M,,*7A
1$GPGST,013422.14,0.000,153588.468,31078.162,101.481,0.000,0.000,0.000*69
1$GPVTG,48.455,T,48.455,M,546.849,N,1012.765,K,D*12
1$GPGLL,4154.16691999,N,01229.78196000,E,013422.14,A,D*62
1$GPGGA,013422.15,4154.16691999,N,01229.78196000,E,4,03,0.000,0.000,M,,M,,*7B
1$GPGST,013422.15,0.000,153588.468,31078.162,101.481,0.000,0.000,0.000*68
1$GPVTG,48.444,T,48.444,M,546.467,N,1012.057,K,D*14
1$GPGLL,4154.16691999,N,01229.78196000,E,013422.15,A,D*63
1$GPGGA,013422.16,4154.16691999,N,01229.78196000,E,4,03,0.000,0.000,M,,M,,*78
1$GPGST,013422.16,0.000,153588.468,31078.162,101.481,0.000,0.000,0.000*6B
1$GPVTG,48.433,T,48.433,M,546.099,N,1011.376,K,D*12
1$GPGLL,4154.16691999,N,01229.78196000,E,013422.16,A,D*60
1$GPGGA,013422.17,4154.16691999,N,01229.78196000,E,4,03,0.000,0.000,M,,M,,*79
1$GPGST,013422.17,0.000,153588.468,31078.162,101.481,0.000,0.000,0.000*6A
1$GPVTG,48.421,T,48.421,M,545.746,N,1010.722,K,D*10
1$GPGLL,4154.16691999,N,01229.78196000,E,013422.17,A,D*61
1$GPGGA,013422.18,4154.16691999,N,01229.78196000,E,4,03,0.000,0.000,M,,M,,*76
1$GPGST,013422.18,0.000,153588.468,31078.162,101.481,0.000,0.000,0.000*65
1$GPVTG,48.410,T,48.410,M,545.409,N,1010.098,K,D*1E
1$GPGLL,4154.16691999,N,01229.78196000,E,013422.18,A,D*6E
1$GPGGA,013422.19,4154.16691999,N,01229.78196000,E,4,03,0.000,0.000,M,,M,,*77
1$GPGST,013422.19,0.000,153588.468,31078.162,101.481,0.000,0.000,0.000*64
1$GPVTG,48.398,T,48.398,M,545.089,N,1009.505,K,D*1B
1$GPGLL,4154.16691999,N,01229.78196000,E,013422.19,A,D*6F
1$GPGGA,013422.20,4154.16691999,N,01229.78196000,E,4,03,0.000,0.000,M,,M,,*7D
1$GPGST,013422.20,0.000,153588.468,31078.162,101.481,0.000,0.000,0.000*6E
1$GPVTG,48.387,T,48.387,M,544.789,N,1008.949,K,D*18
1$GPGLL,4154.16691999,N,01229.78196000,E,013422.20,A,D*65
1$GPGGA,013422.21,4154.16691999,N,01229.78196000,E,4,03,0.000,0.000,M,,M,,*7C
1$GPGST,013422.21,0.000,153588.468,31078.162,101.481,0.000,0.000,0.000*6F
1$GPVTG,48.375,T,48.375,M,544.508,N,1008.429,K,D*18
1$GPGLL,4154.16691999,N,01229.78196000,E,013422.21,A,D*64
1$GPGGA,013422.22,4154.16691999,N,01229.78196000,E,4,03,0.000,0.000,M,,M,,*7F
1$GPGST,013422.22,0.000,153588.468,31078.162,101.481,0.000,0.000,0.000*6C
1$GPVTG,48.364,T,48.364,M,544.247,N,1007.947,K,D*1E
1$GPGLL,4154.16691999,N,01229.78196000,E,013422.22,A,D*67
1$GPGGA,013422.23,4154.16691999,N,01229.78196000,E,4,03,0.000,0.000,M,,M,,*7E
1$GPGST,013422.23,0.000,153588.468,31078.162,101.481,0.000,0.000,0.000*6D
1$GPVTG,48.352,T,48.352,M,544.009,N,1007.506,K,D*1F
1$GPGLL,4154.16691999,N,01229.78196000,E,013422.23,A,D*66
1$GPGGA,013422.24,4154.16691999,N,01229.78196000,E,4,03,0.000,0.000,M,,M,,*79
1$GPGST,013422.24,0.000,153588.468,31078.162,101.481,0.000,0.000,0.000*6A
1$GPVTG,48.340,T,48.340,M,543.794,N,1007.107,K,D*1E
1$GPGLL,4154.16691999,N,01229.78196000,E,013422.24,A,D*61
1$GPGGA,013422.25,4154.16691999,N,01229.78196000,E,4,03,0.000,0.000,M,,M,,*78
1$GPGST,013422.25,0.000,153588.468,31078.162,101.481,0.000,0.000,0.000*6B
1$GPVTG,48.329,T,48.329,M,543.603,N,1006.753,K,D*17
1$GPGLL,4154.16691999,N,01229.78196000,E,013422.25,A,D*60
1$GPGGA,013422.26,4154.16691999,N,01229.78196000,E,4,03,0.000,0.000,M,,M,,*7B
1$GPGST,013422.26,0.000,153588.468,31078.162,101.481,0.000,0.000,0.000*68
1$GPVTG,48.317,T,48.317,M,543.436,N,1006.444,K,D*16
1$GPGLL,4154.16691999,N,01229.78196000,E,013422.26,A,D*63
1$GPGGA,013422.27,4154.16691999,N,01229.78196000,E,4,03,0.000,0.000,M,,M,,*7A
1$GPGST,013422.27,0.000,153588.468,31078.162,101.481,0.000,0.000,0.000*69
1$GPVTG,48.305,T,48.305,M,543.294,N,1006.180,K,D*15
1$GPGLL,4154.16691999,N,01229.78196000,E,013422.27,A,D*62
1$GPGGA,013422.28,4154.16691999,N,01229.78196000,E,4,03,0.000,0.000,M,,M,,*75
1$GPGST,013422.28,0.000,153588.468,31078.162,101.481,0.000,0.000,0.000*66
1$GPVTG,48.293,T,48.293,M,543.177,N,1005.964,K,D*1A
1$GPGLL,4154.16691999,N,01229.78196000,E,013422.28,A,D*6D
1$GPGGA,013422.29,4154.16691999,N,01229.78196000,E,4,03,0.000,0.000,M,,M,,*74
1$GPGST,013422.29,0.000,153588.468,31078.162,101.481,0.000,0.000,0.000*67
1$GPVTG,48.281,T,48.281,M,543.086,N,1005.796,K,D*16
1$GPGLL,4154.16691999,N,01229.78196000,E,013422.29,A,D*6C
1$GPGGA,013422.30,4154.16691999,N,01229.78196000,E,4,03,0.000,0.000,M,,M,,*7C
1$GPGST,013422.30,0.000,153588.468,31078.162,101.481,0.000,0.000,0.000*6F
1$GPVTG,48.270,T,48.270,M,543.022,N,1005.677,K,D*16
1$GPGLL,4154.16691999,N,01229.78196000,E,013422.30,A,D*64
1$GPGGA,013422.31,4154.16691999,N,01229.78196000,E,4,03,0.000,0.000,M,,M,,*7D
1$GPGST,013422.31,0.000,153588.468,31078.162,101.481,0.000,0.000,0.000*6E
1$GPVTG,48.258,T,48.258,M,542.984,N,1005.607,K,D*15
1$GPGLL,4154.16691999,N,01229.78196000,E,013422.31,A,D*65
1$GPGGA,013422.32,4154.16691999,N,01229.78196000,E,4,03,0.000,0.000,M,,M,,*7E
1$GPGST,013422.32,0.000,153588.468,31078.162,101.481,0.000,0.000,0.000*6D
1$GPVTG,48.246,T,48.246,M,542.973,N,1005.586,K,D*17
1$GPGLL,4154.16691999,N,01229.78196000,E,013422.32,A,D*66
1$GPGGA,013422.33,4154.16691999,N,01229.78196000,E,4,03,0.000,0.000,M,,M,,*7F
1$GPGST,013422.33,0.000,153588.468,31078.162,101.481,0.000,0.000,0.000*6C
1$GPVTG,48.234,T,48.234,M,542.989,N,1005.615,K,D*1B
1$GPGLL,4154.16691999,N,01229.78196000,E,013422.33,A,D*67
1$GPGGA,013422.34,4154.16691999,N,01229.78196000,E,4,03,0.000,0.000,M,,M,,*78
1$GPGST,013422.34,0.000,153588.468,31078.162,101.481,0.000,0.000,0.000*6B
1$GPVTG,48.222,T,48.222,M,543.031,N,1005.694,K,D*19
1$GPGLL,4154.16691999,N,01229.78196000,E,013422.34,A,D*60
1$GPGGA,013422.35,4154.16691999,N,01229.78196000,E,4,03,0.000,0.000,M,,M,,*79
1$GPGST,013422.35,0.000,153588.468,31078.162,101.481,0.000,0.000,0.000*6A
1$GPVTG,48.210,T,48.210,M,543.100,N,1005.822,K,D*19
1$GPGLL,4154.16691999,N,01229.78196000,E,013422.35,A,D*61
1$GPGGA,013422.36,4154.16691999,N,01229.78196000,E,4,03,0.000,0.000,M,,M,,*7A
1$GPGST,013422.36,0.000,153588.468,31078.162,101.481,0.000,0.000,0.000*69
1$GPVTG,48.198,T,48.198,M,543.195,N,1005.998,K,D*15
1$GPGLL,4154.16691999,N,01229.78196000,E,013422.36,A,D*62
1$GPGGA,013422.37,4154.16691999,N,01229.78196000,E,4,03,0.000,0.000,M,,M,,*7B
1$GPGST,013422.37,0.000,153588.468,31078.162,101.481,0.000,0.000,0.000*68
1$GPVTG,48.186,T,48.186,M,543.316,N,1006.222,K,D*15
1$GPGLL,4154.16691999,N,01229.78196000,E,013422.37,A,D*63
1$GPGGA,013422.38,4154.16691999,N,01229.78196000,E,4,03,0.000,0.000,M,,M,,*74
1$GPGST,013422.38,0.000,153588.468,31078.162,101.481,0.000,0.000,0.000*67
1$GPVTG,48.173,T,48.173,M,543.463,N,1006.494,K,D*1B
1$GPGLL,4154.16691999,N,01229.78196000,E,013422.38,A,D*6C
1$GPGGA,013422.39,4154.16691999,N,01229.78196000,E,4,03,0.000,0.000,M,,M,,*75
1$GPGST,013422.39,0.000,153588.468,31078.162,101.481,0.000,0.000,0.000*66
1$GPVTG,48.161,T,48.161,M,543.635,N,1006.812,K,D*18
1$GPGLL,4154.16691999,N,01229.78196000,E,013422.39,A,D*6D
1$GPGGA,013422.40,4154.16691999,N,01229.78196000,E,4,03,0.000,0.000,M,,M,,*7B
1$GPGST,013422.40,0.000,153588.468,31078.162,101.481,0.000,0.000,0.000*68
1$GPVTG,48.149,T,48.149,M,543.831,N,1007.176,K,D*18
1$GPGLL,4154.16691999,N,01229.78196000,E,013422.40,A,D*63
1$GPGGA,013422.41,4154.16691999,N,01229.78196000,E,4,03,0.000,0.000,M,,M,,*7A
1$GPGST,013422.41,0.000,153588.468,31078.162,101.481,0.000,0.000,0.000*69
1$GPVTG,48.137,T,48.137,M,544.050,N,1007.581,K,D*1C
1$GPGLL,4154.16691999,N,01229.78196000,E,013422.41,A,D*62
1$GPGGA,013422.42,4154.16691999,N,01229.78196000,E,4,03,0.000,0.000,M,,M,,*79
1$GPGST,013422.42,0.000,153588.468,31078.162,101.481,0.000,0.000,0.000*6A
1$GPVTG,48.125,T,48.125,M,544.292,N,1008.030,K,D*10
1$GPGLL,4154.16691999,N,01229.78196000,E,013422.42,A,D*61
1$GPGGA,013422.43,4154.16691999,N,01229.78196000,E,4,03,0.000,0.000,M,,M,,*78
1$GPGST,013422.43,0.000,153588.468,31078.162,101.481,0.000,0.000,0.000*6B
1$GPVTG,48.112,T,48.112,M,544.556,N,1008.518,K,D*10
1$GPGLL,4154.16691999,N,01229.78196000,E,013422.43,A,D*60
1$GPGGA,013422.44,4154.16691999,N,01229.78196000,E,4,03,0.000,0.000,M,,M,,*7F
1$GPGST,013422.44,0.000,153588.468,31078.162,101.481,0.000,0.000,0.000*6C
1$GPVTG,48.100,T,48.100,M,544.841,N,1009.045,K,D*17
1$GPGLL,4154.16691999,N,01229.78196000,E,013422.44,A,D*67
1$GPGGA,013422.45,4154.16691999,N,01229.78196000,E,4,03,0.000,0.000,M,,M,,*7E
1$GPGST,013422.45,0.000,153588.468,31078.162,101.481,0.000,0.000,0.000*6D
1$GPVTG,48.088,T,48.088,M,545.145,N,1009.608,K,D*14
1$GPGLL,4154.16691999,N,01229.78196000,E,013422.45,A,D*66
1$GPGGA,013422.46,4154.16691999,N,01229.78196000,E,4,03,0.000,0.000,M,,M,,*7D
1$GPGST,013422.46,0.000,153588.468,31078.162,101.481,0.000,0.000,0.000*6E
1$GPVTG,48.075,T,48.075,M,545.467,N,1010.206,K,D*13
1$GPGLL,4154.16691999,N,01229.78196000,E,013422.46,A,D*65
1$GPGGA,013422.47,4154.16691999,N,01229.78196000,E,4,03,0.000,0.000,M,,M,,*7C
1$GPGST,013422.47,0.000,153588.468,31078.162,101.481,0.000,0.000,0.000*6F
1$GPVTG,48.063,T,48.063,M,545.807,N,1010.835,K,D*13
1$GPGLL,4154.16691999,N,01229.78196000,E,013422.47,A,D*64
1$GPGGA,013422.48,4154.16691999,N,01229.78196000,E,4,03,0.000,0.000,M,,M,,*73
1$GPGST,013422.48,0.000,153588.468,31078.162,101.481,0.000,0.000,0.000*60
1$GPVTG,48.051,T,48.051,M,546.163,N,1011.495,K,D*1C
1$GPGLL,4154.16691999,N,01229.78196000,E,013422.48,A,D*6B
1$GPGGA,013422.49,4154.16691999,N,01229.78196000,E,4,03,0.000,0.000,M,,M,,*72
1$GPGST,013422.49,0.000,153588.468,31078.162,101.481,0.000,0.000,0.000*61
1$GPVTG,48.038,T,48.038,M,546.534,N,1012.181,K,D*19
1$GPGLL,4154.16691999,N,01229.78196000,E,013422.49,A,D*6A
1$GPGGA,013422.50,4154.16691999,N,01229.78196000,E,4,03,0.000,0.000,M,,M,,*7A
1$GPGST,013422.50,0.000,153588.468,31078.162,101.481,0.000,0.000,0.000*69
1$GPVTG,48.026,T,48.026,M,546.917,N,1012.891,K,D*1C
1$GPGLL,4154.16691999,N,01229.78196000,E,013422.50,A,D*62
1$GPGGA,013422.51,4154.16691999,N,01229.78196000,E,4,03,0.000,0.000,M,,M,,*7B
1$GPGST,013422.51,0.000,153588.468,31078.162,101.481,0.000,0.000,0.000*68
1$GPVTG,48.013,T,48.013,M,547.313,N,1013.623,K,D*15
1$GPGLL,4154.16691999,N,01229.78196000,E,013422.51,A,D*63
1$GPGGA,013422.52,4154.16691999,N,01229.78196000,E,4,03,0.000,0.000,M,,M,,*78
1$GPGST,013422.52,0.000,153588.468,31078.162,101.481,0.000,0.000,0.000*6B
1$GPVTG,48.001,T,48.001,M,547.717,N,1014.373,K,D*12
1$GPGLL,4154.16691999,N,01229.78196000,E,013422.52,A,D*60
1$GPGGA,013422.53,4154.16691999,N,01229.78196000,E,4,03,0.000,0.000,M,,M,,*79
1$GPGST,013422.53,0.000,153588.468,31078.162,101.481,0.000,0.000,0.000*6A
1$GPVTG,47.988,T,47.988,M,548.132,N,1015.141,K,D*1E
1$GPGLL,4154.16691999,N,01229.78196000,E,013422.53,A,D*61
1$GPZDA,013422.54,,,,,*61
1$GPGGA,013422.54,4154.16691999,N,01229.78196000,E,4,03,0.000,0.000,M,,M,,*7E
1$GPGST,013422.54,0.000,153588.468,31078.162,101.481,0.000,0.000,0.000*6D
1$GPVTG,47.975,T,47.975,M,548.553,N,1015.920,K,D*12
1$GPGLL,4154.16691999,N,01229.78196000,E,013422.54,A,D*66
1$GPGGA,013422.55,4154.16691999,N,01229.78196000,E,4,03,0.000,0.000,M,,M,,*7F
1$GPGST,013422.55,0.000,153588.468,31078.162,101.481,0.000,0.000,0.000*6C
1$GPVTG,47.963,T,47.963,M,548.978,N,1016.708,K,D*10
1$GPGLL,4154.16691999,N,01229.78196000,E,013422.55,A,D*67
1$GPGGA,013422.56,4154.16691999,N,01229.78196000,E,4,03,0.000,0.000,M,,M,,*7C
1$GPGST,013422.56,0.000,153588.468,31078.162,101.481,0.000,0.000,0.000*6F
1$GPVTG,47.950,T,47.950,M,549.415,N,1017.516,K,D*1B
1$GPGLL,4154.16691999,N,01229.78196000,E,013422.56,A,D*64
1$GPGGA,013422.57,4154.16691999,N,01229.78196000,E,4,03,0.000,0.000,M,,M,,*7D
1$GPGST,013422.57,0.000,153588.468,31078.162,101.481,0.000,0.000,0.000*6E
1$GPVTG,47.937,T,47.937,M,549.849,N,1018.321,K,D*13
1$GPGLL,4154.16691999,N,01229.78196000,E,013422.57,A,D*65
1$GPGGA,013422.58,4154.16691999,N,01229.78196000,E,4,03,0.000,0.000,M,,M,,*72
1$GPGST,013422.58,0.000,153588.468,31078.162,101.481,0.000,0.000,0.000*61
1$GPVTG,47.924,T,47.924,M,550.276,N,1019.112,K,D*1E
1$GPGLL,4154.16691999,N,01229.78196000,E,013422.58,A,D*6A
1$GPGGA,013422.59,4154.16691999,N,01229.78196000,E,4,03,0.000,0.000,M,,M,,*73
1$GPGST,013422.59,0.000,153588.468,31078.162,101.481,0.000,0.000,0.000*60
1$GPVTG,47.912,T,47.912,M,550.706,N,1019.909,K,D*1E
1$GPGLL,4154.16691999,N,01229.78196000,E,013422.59,A,D*6B
1$GPGGA,013422.60,4154.16691999,N,01229.78196000,E,4,03,0.000,0.000,M,,M,,*79
1$GPGST,013422.60,0.000,153588.468,31078.162,101.481,0.000,0.000,0.000*6A
1$GPVTG,47.899,T,47.899,M,551.135,N,1020.703,K,D*17
1$GPGLL,4154.16691999,N,01229.78196000,E,013422.60,A,D*61
1$GPGGA,013422.61,4154.16691999,N,01229.78196000,E,4,03,0.000,0.000,M,,M,,*78
1$GPGST,013422.61,0.000,153588.468,31078.162,101.481,0.000,0.000,0.000*6B
1$GPVTG,47.886,T,47.886,M,551.554,N,1021.479,K,D*1B
1$GPGLL,4154.16691999,N,01229.78196000,E,013422.61,A,D*60
1$GPGGA,013422.62,4154.16691999,N,01229.78196000,E,4,03,0.000,0.000,M,,M,,*7B
1$GPGST,013422.62,0.000,153588.468,31078.162,101.481,0.000,0.000,0.000*68
1$GPVTG,47.873,T,47.873,M,551.973,N,1022.255,K,D*19
1$GPGLL,4154.16691999,N,01229.78196000,E,013422.62,A,D*63
1$GPGGA,013422.63,4154.16691999,N,01229.78196000,E,4,03,0.000,0.000,M,,M,,*7A
1$GPGST,013422.63,0.000,153588.468,31078.162,101.481,0.000,0.000,0.000*69
1$GPVTG,47.860,T,47.860,M,552.378,N,1023.004,K,D*1C
1$GPGLL,4154.16691999,N,01229.78196000,E,013422.63,A,D*62
1$GPGGA,013422.64,4154.16691999,N,01229.78196000,E,4,03,0.000,0.000,M,,M,,*7D
1$GPGST,013422.64,0.000,153588.468,31078.162,101.481,0.000,0.000,0.000*6E
1$GPVTG,47.848,T,47.848,M,552.773,N,1023.735,K,D*16
1$GPGLL,4154.16691999,N,01229.78196000,E,013422.64,A,D*65
1$GPGGA,013422.65,4154.16691999,N,01229.78196000,E,4,03,0.000,0.000,M,,M,,*7C
1$GPGST,013422.65,0.000,153588.468,31078.162,101.481,0.000,0.000,0.000*6F
1$GPVTG,47.835,T,47.835,M,553.157,N,1024.448,K,D*19
1$GPGLL,4154.16691999,N,01229.78196000,E,013422.65,A,D*64
1$GPGGA,013422.66,4154.16691999,N,01229.78196000,E,4,03,0.000,0.000,M,,M,,*7F
1$GPGST,013422.66,0.000,153588.468,31078.162,101.481,0.000,0.000,0.000*6C
1$GPVTG,47.822,T,47.822,M,553.530,N,1025.139,K,D*1E
1$GPGLL,4154.16691999,N,01229.78196000,E,013422.66,A,D*67
1$GPGGA,013422.67,4154.16691999,N,01229.78196000,E,4,03,0.000,0.000,M,,M,,*7E
1$GPGST,013422.67,0.000,153588.468,31078.162,101.481,0.000,0.000,0.000*6D
1$GPVTG,47.809,T,47.809,M,553.888,N,1025.801,K,D*12
1$GPGLL,4154.16691999,N,01229.78196000,E,013422.67,A,D*66
1$GPGGA,013422.68,4154.16691999,N,01229.78196000,E,4,03,0.000,0.000,M,,M,,*71
1$GPGST,013422.68,0.000,153588.468,31078.162,101.481,0.000,0.000,0.000*62
1$GPVTG,47.796,T,47.796,M,554.230,N,1026.435,K,D*14
1$GPGLL,4154.16691999,N,01229.78196000,E,013422.68,A,D*69
1$GPGGA,013422.69,4154.16691999,N,01229.78196000,E,4,03,0.000,0.000,M,,M,,*70
1$GPGST,013422.69,0.000,153588.468,31078.162,101.481,0.000,0.000,0.000*63
1$GPVTG,47.783,T,47.783,M,554.555,N,1027.037,K,D*17
1$GPGLL,4154.16691999,N,01229.78196000,E,013422.69,A,D*68
1$GPGGA,013422.70,4154.16691999,N,01229.78196000,E,4,03,0.000,0.000,M,,M,,*78
1$GPGST,013422.70,0.000,153588.468,31078.162,101.481,0.000,0.000,0.000*6B
1$GPVTG,47.770,T,47.770,M,554.862,N,1027.606,K,D*1A
1$GPGLL,4154.16691999,N,01229.78196000,E,013422.70,A,D*60
1$GPGGA,013422.71,4154.16691999,N,01229.78196000,E,4,03,0.000,0.000,M,,M,,*79
1$GPGST,013422.71,0.000,153588.468,31078.162,101.481,0.000,0.000,0.000*6A
1$GPVTG,47.757,T,47.757,M,555.147,N,1028.132,K,D*1A
1$GPGLL,4154.16691999,N,01229.78196000,E,013422.71,A,D*61
1$GPGGA,013422.72,4154.16691999,N,01229.78196000,E,4,03,0.000,0.000,M,,M,,*7A
1$GPGST,013422.72,0.000,153588.468,31078.162,101.481,0.000,0.000,0.000*69
1$GPVTG,47.743,T,47.743,M,555.412,N,1028.624,K,D*1F
1$GPGLL,4154.16691999,N,01229.78196000,E,013422.72,A,D*62
