$GPRMC,090556.393,A,3510.63,S,13828.23,E,12.2,76.6,020720,,,*36
$IIVHW,76.6,T,76.6,M,6.3,N,11.6,K*66
$IIHDT,76.6,T*15
$GPGLL,3510.63,S,13828.23,E,090556.393,A*2C
$GPGGA,090556.393,3510.63,S,13828.23,E,1,4,2.6,2.0,M,,,,*25
$GPGSA,A,3,8,11,15,22,,,,,,,,,1.5,2.6,3.1*0C
$GPZDA,090556.393,02,07,2020,+02,00*7C
!AIVDO,1,1,,A,17PaewhP1qaqoS7coidBwBIh0000,0*35
$WIMWV,238.6,T,16.0,N,A*1D
$WIMWD,238.6,T,238.6,M,16.0,N,8.2,M*67
$WIMWV,121.8,R,5.8,N,A*24
$IIMTW,7.7,C*23
$SDDPT,39.5,01*47
$SDDBT,129.7,f,39.5,M,21.6,F*01
$SDDBK,129.7,f,39.5,M,21.6,F*1E
$SDDBS,129.7,f,39.5,M,21.6,F*06
!AIVDO,2,1,9,A,57Paewh00001<To7;?@plD5<Tl0000000000000U1@:551i952TnA3QF,0*6C
!AIVDO,2,2,9,A,@00000000000002,2*5D
$GPRMC,090557.393,A,3510.63,S,13828.24,E,11.6,80.4,020720,,,*3C
$IIVHW,80.4,T,80.4,M,6.0,N,11.0,K*63
$IIHDT,80.4,T*1E
$GPGLL,3510.63,S,13828.24,E,090557.393,A*2A
$GPGGA,090557.393,3510.63,S,13828.24,E,1,4,3.1,2.0,M,,,,*25
$GPGSA,A,3,8,11,15,22,,,,,,,,,1.8,3.1,3.7*01
$GPZDA,090557.393,02,07,2020,+02,00*7D
!AIVDO,1,1,,A,17PaewhP1kaqoTEcoieS8jQj0000,0*37
$WIMWV,250.5,T,19.2,N,A*1D
$WIMWD,250.5,T,250.5,M,19.2,N,9.9,M*60
$WIMWV,155.8,R,8.0,N,A*22
$IIMTW,7.8,C*2C
$SDDPT,43.5,01*4A
$SDDBT,142.7,f,43.5,M,23.8,F*0D
$SDDBK,142.7,f,43.5,M,23.8,F*12
$SDDBS,142.7,f,43.5,M,23.8,F*0A
!AIVDO,2,1,9,A,57Paewh00001<To7;?@plD5<Tl0000000000000U1@:551i952TnA3QF,0*6C
!AIVDO,2,2,9,A,@00000000000002,2*5D
$GPRMC,090558.393,A,3510.62,S,13828.24,E,12.2,84.4,020720,,,*31
$IIVHW,84.4,T,84.4,M,6.3,N,11.6,K*66
$IIHDT,84.4,T*1A
$GPGLL,3510.62,S,13828.24,E,090558.393,A*24
$GPGGA,090558.393,3510.62,S,13828.24,E,1,4,2.6,2.0,M,,,,*2D
$GPGSA,A,3,8,11,15,22,,,,,,,,,2.2,2.6,3.1*08
$GPZDA,090558.393,02,07,2020,+02,00*72
!AIVDO,1,1,,A,17PaewhP1qaqoUWcoifCC2al0000,0*38
$WIMWV,263.0,T,23.0,N,A*13
$WIMWD,263.0,T,263.0,M,23.0,N,11.9,M*52
$WIMWV,177.1,R,10.9,N,A*1B
$IIMTW,7.7,C*23
$SDDPT,39.5,01*47
$SDDBT,129.7,f,39.5,M,21.6,F*01
$SDDBK,129.7,f,39.5,M,21.6,F*1E
$SDDBS,129.7,f,39.5,M,21.6,F*06
!AIVDO,2,1,9,A,57Paewh00001<To7;?@plD5<Tl0000000000000U1@:551i952TnA3QF,0*6C
!AIVDO,2,2,9,A,@00000000000002,2*5D
$GPRMC,090559.394,A,3510.62,S,13828.25,E,11.6,88.6,020720,,,*3F
$IIVHW,88.6,T,88.6,M,6.0,N,11.0,K*63
$IIHDT,88.6,T*14
$GPGLL,3510.62,S,13828.25,E,090559.394,A*23
$GPGGA,090559.394,3510.62,S,13828.25,E,1,4,2.2,2.0,M,,,,*2E
$GPGSA,A,3,8,11,15,22,,,,,,,,,2.6,2.2,2.6*0E
$GPZDA,090559.394,02,07,2020,+02,00*74
!AIVDO,1,1,,A,17PaewhP1kaqoVocoifSMRin0000,0*6D
$WIMWV,250.5,T,27.6,N,A*14
$WIMWD,250.5,T,250.5,M,27.6,N,14.2,M*5E
$WIMWV,149.7,R,17.0,N,A*1E
$IIMTW,7.8,C*2C
$SDDPT,43.5,01*4A
$SDDBT,142.7,f,43.5,M,23.8,F*0D
$SDDBK,142.7,f,43.5,M,23.8,F*12
$SDDBS,142.7,f,43.5,M,23.8,F*0A
!AIVDO,2,1,9,A,57Paewh00001<To7;?@plD5<Tl0000000000000U1@:551i952TnA3QF,0*6C
!AIVDO,2,2,9,A,@00000000000002,2*5D
$GPRMC,090600.394,A,3510.62,S,13828.25,E,12.2,93.1,020720,,,*3A
$IIVHW,93.1,T,93.1,M,6.3,N,11.6,K*66
$IIHDT,93.1,T*19
$GPGLL,3510.62,S,13828.25,E,090600.394,A*2C
$GPGGA,090600.394,3510.62,S,13828.25,E,1,4,1.8,2.0,M,,,,*28
$GPGSA,A,3,8,11,15,22,,,,,,,,,2.2,1.8,3.1*05
$GPZDA,090600.394,02,07,2020,+02,00*7B
!AIVDO,1,1,,A,17PaewhP1qaqo`9coif3`Rr00000,0*1F
$WIMWV,263.0,T,23.0,N,A*13
$WIMWD,263.0,T,263.0,M,23.0,N,11.9,M*52
$WIMWV,159.2,R,11.3,N,A*1F
$IIMTW,7.8,C*2C
$SDDPT,39.5,01*47
$SDDBT,129.7,f,39.5,M,21.6,F*01
$SDDBK,129.7,f,39.5,M,21.6,F*1E
$SDDBS,129.7,f,39.5,M,21.6,F*06
!AIVDO,2,1,9,A,57Paewh00001<To7;?@plD5<Tl0000000000000U1@:551i962TnA3QF,0*6F
!AIVDO,2,2,9,A,@00000000000002,2*5D
$GPRMC,090601.394,A,3510.63,S,13828.25,E,11.6,97.7,020720,,,*3F
$IIVHW,97.7,T,97.7,M,6.0,N,11.0,K*63
$IIHDT,97.7,T*1B
$GPGLL,3510.63,S,13828.25,E,090601.394,A*2C
$GPGGA,090601.394,3510.63,S,13828.25,E,1,4,1.5,2.0,M,,,,*25
$GPGSA,A,3,8,11,15,22,,,,,,,,,2.6,1.5,3.7*0A
$GPZDA,090601.394,02,07,2020,+02,00*7A
!AIVDO,1,1,,A,17PaewhP1kaqoaGcoie3lC220000,0*26
$WIMWV,250.5,T,19.2,N,A*1D
$WIMWD,250.5,T,250.5,M,19.2,N,9.9,M*60
$WIMWV,122.1,R,10.4,N,A*16
$IIMTW,7.8,C*2C
$SDDPT,35.9,01*47
$SDDBT,117.9,f,35.9,M,19.7,F*08
$SDDBK,117.9,f,35.9,M,19.7,F*17
$SDDBS,117.9,f,35.9,M,19.7,F*0F
!AIVDO,2,1,9,A,57Paewh00001<To7;?@plD5<Tl0000000000000U1@:551i962TnA3QF,0*6F
!AIVDO,2,2,9,A,@00000000000002,2*5D
$GPRMC,090602.393,A,3510.63,S,13828.26,E,12.2,102.6,020720,,,*03
$IIVHW,102.6,T,102.6,M,6.3,N,11.6,K*66
$IIHDT,102.6,T*27
$GPGLL,3510.63,S,13828.26,E,090602.393,A*2B
$GPGGA,090602.393,3510.63,S,13828.26,E,1,4,1.8,2.0,M,,,,*2F
$GPGSA,A,3,8,11,15,22,,,,,,,,,2.2,1.8,4.5*06
$GPZDA,090602.393,02,07,2020,+02,00*7E
!AIVDO,1,1,,A,17PaewhP1qaqobWcoicD0C<40000,0*0A
$WIMWV,263.0,T,23.0,N,A*13
$WIMWD,263.0,T,263.0,M,23.0,N,11.9,M*52
$WIMWV,141.1,R,12.3,N,A*16
$IIMTW,7.7,C*23
$SDDPT,32.7,01*4E
$SDDBT,107.2,f,32.7,M,17.9,F*0B
$SDDBK,107.2,f,32.7,M,17.9,F*14
$SDDBS,107.2,f,32.7,M,17.9,F*0C
!AIVDO,2,1,9,A,57Paewh00001<To7;?@plD5<Tl0000000000000U1@:551i962TnA3QF,0*6F
!AIVDO,2,2,9,A,@00000000000002,2*5D
$GPRMC,090603.393,A,3510.63,S,13828.26,E,11.6,97.7,020720,,,*39
$IIVHW,97.7,T,97.7,M,6.0,N,11.0,K*63
$IIHDT,97.7,T*1B
$GPGLL,3510.63,S,13828.26,E,090603.393,A*2A
$GPGGA,090603.393,3510.63,S,13828.26,E,1,4,2.2,2.0,M,,,,*27
$GPGSA,A,3,8,11,15,22,,,,,,,,,1.8,2.2,5.0*02
$GPZDA,090603.393,02,07,2020,+02,00*7F
!AIVDO,1,1,,A,17PaewhP1kaqocmcoib3lC260000,0*0D
$WIMWV,250.5,T,27.6,N,A*14
$WIMWD,250.5,T,250.5,M,27.6,N,14.2,M*5E
$WIMWV,135.8,R,18.1,N,A*14
$IIMTW,7.8,C*2C
$SDDPT,35.9,01*47
$SDDBT,117.9,f,35.9,M,19.7,F*08
$SDDBK,117.9,f,35.9,M,19.7,F*17
$SDDBS,117.9,f,35.9,M,19.7,F*0F
!AIVDO,2,1,9,A,57Paewh00001<To7;?@plD5<Tl0000000000000U1@:551i962TnA3QF,0*6F
!AIVDO,2,2,9,A,@00000000000002,2*5D
$GPRMC,090604.393,A,3510.63,S,13828.27,E,11.0,102.6,020720,,,*05
$IIVHW,102.6,T,102.6,M,5.7,N,10.5,K*63
$IIHDT,102.6,T*27
$GPGLL,3510.63,S,13828.27,E,090604.393,A*2C
$GPGGA,090604.393,3510.63,S,13828.27,E,1,4,2.6,2.0,M,,,,*25
$GPGSA,A,3,8,11,15,22,,,,,,,,,1.5,2.6,5.0*0B
$GPZDA,090604.393,02,07,2020,+02,00*78
!AIVDO,1,1,,A,17PaewhP1faqoducoi`T0C<80000,0*26
$WIMWV,263.0,T,33.2,N,A*10
$WIMWD,263.0,T,263.0,M,33.2,N,17.1,M*5F
$WIMWV,151.2,R,23.1,N,A*14
$IIMTW,7.7,C*23
$SDDPT,32.7,01*4E
$SDDBT,107.2,f,32.7,M,17.9,F*0B
$SDDBK,107.2,f,32.7,M,17.9,F*14
$SDDBS,107.2,f,32.7,M,17.9,F*0C
!AIVDO,2,1,9,A,57Paewh00001<To7;?@plD5<Tl0000000000000U1@:551i962TnA3QF,0*6F
!AIVDO,2,2,9,A,@00000000000002,2*5D
$GPRMC,090605.393,A,3510.63,S,13828.27,E,11.6,107.7,020720,,,*06
$IIVHW,107.7,T,107.7,M,6.0,N,11.0,K*63
$IIHDT,107.7,T*23
$GPGLL,3510.63,S,13828.27,E,090605.393,A*2D
$GPGGA,090605.393,3510.63,S,13828.27,E,1,4,3.1,2.0,M,,,,*22
$GPGSA,A,3,8,11,15,22,,,,,,,,,1.8,3.1,5.0*00
$GPZDA,090605.393,02,07,2020,+02,00*79
!AIVDO,1,1,,A,17PaewhP1kaqof9coiV4=CF:0000,0*46
$WIMWV,250.5,T,39.8,N,A*15
$WIMWD,250.5,T,250.5,M,39.8,N,20.5,M*5F
$WIMWV,129.9,R,31.4,N,A*16
$IIMTW,7.6,C*22
$SDDPT,35.9,01*47
$SDDBT,117.9,f,35.9,M,19.7,F*08
$SDDBK,117.9,f,35.9,M,19.7,F*17
$SDDBS,117.9,f,35.9,M,19.7,F*0F
!AIVDO,2,1,9,A,57Paewh00001<To7;?@plD5<Tl0000000000000U1@:551i962TnA3QF,0*6F
!AIVDO,2,2,9,A,@00000000000002,2*5D
$GPRMC,090606.392,A,3510.63,S,13828.27,E,11.0,113.1,020720,,,*01
$IIVHW,113.1,T,113.1,M,5.7,N,10.5,K*63
$IIHDT,113.1,T*20
$GPGLL,3510.63,S,13828.27,E,090606.392,A*2F
$GPGGA,090606.392,3510.63,S,13828.27,E,1,4,3.7,2.0,M,,,,*26
$GPGSA,A,3,8,11,15,22,,,,,,,,,1.5,3.7,5.0*0B
$GPZDA,090606.392,02,07,2020,+02,00*7B
!AIVDO,1,1,,A,17PaewhP1faqog=coiS4JkR<0000,0*06
$WIMWV,263.0,T,33.2,N,A*10
$WIMWD,263.0,T,263.0,M,33.2,N,17.1,M*5F
$WIMWV,136.8,R,24.3,N,A*1A
$IIMTW,7.7,C*23
$SDDPT,39.5,01*47
$SDDBT,129.7,f,39.5,M,21.6,F*01
$SDDBK,129.7,f,39.5,M,21.6,F*1E
$SDDBS,129.7,f,39.5,M,21.6,F*06
!AIVDO,2,1,9,A,57Paewh00001<To7;?@plD5<Tl0000000000000U1@:551i962TnA3QF,0*6F
!AIVDO,2,2,9,A,@00000000000002,2*5D
$GPRMC,090607.393,A,3510.63,S,13828.28,E,11.6,107.7,020720,,,*0B
$IIVHW,107.7,T,107.7,M,6.0,N,11.0,K*63
$IIHDT,107.7,T*23
$GPGLL,3510.63,S,13828.28,E,090607.393,A*20
$GPGGA,090607.393,3510.63,S,13828.28,E,1,4,3.1,2.0,M,,,,*2F
$GPGSA,A,3,8,11,15,22,,,,,,,,,1.8,3.1,4.2*03
$GPZDA,090607.393,02,07,2020,+02,00*7B
!AIVDO,1,1,,A,17PaewhP1kaqohIcoiPT=CF>0000,0*5A
$WIMWV,250.5,T,39.8,N,A*15
$WIMWD,250.5,T,250.5,M,39.8,N,20.5,M*5F
$WIMWV,129.9,R,31.4,N,A*16
$IIMTW,7.6,C*22
$SDDPT,43.5,01*4A
$SDDBT,142.7,f,43.5,M,23.8,F*0D
$SDDBK,142.7,f,43.5,M,23.8,F*12
$SDDBS,142.7,f,43.5,M,23.8,F*0A
!AIVDO,2,1,9,A,57Paewh00001<To7;?@plD5<Tl0000000000000U1@:551i962TnA3QF,0*6F
!AIVDO,2,2,9,A,@00000000000002,2*5D
$GPRMC,090608.394,A,3510.63,S,13828.28,E,11.0,113.1,020720,,,*06
$IIVHW,113.1,T,113.1,M,5.7,N,10.5,K*63
$IIHDT,113.1,T*20
$GPGLL,3510.63,S,13828.28,E,090608.394,A*28
$GPGGA,090608.394,3510.63,S,13828.28,E,1,4,3.7,2.0,M,,,,*21
$GPGSA,A,3,8,11,15,22,,,,,,,,,2.2,3.7,5.0*0F
$GPZDA,090608.394,02,07,2020,+02,00*73
!AIVDO,1,1,,A,17PaewhP1faqoiMcoiMTJkR@0000,0*7A
$WIMWV,238.6,T,47.8,N,A*11
$WIMWD,238.6,T,238.6,M,47.8,N,24.6,M*51
$WIMWV,113.2,R,42.3,N,A*17
$IIMTW,7.5,C*21
$SDDPT,39.5,01*47
$SDDBT,129.7,f,39.5,M,21.6,F*01
$SDDBK,129.7,f,39.5,M,21.6,F*1E
$SDDBS,129.7,f,39.5,M,21.6,F*06
!AIVDO,2,1,9,A,57Paewh00001<To7;?@plD5<Tl0000000000000U1@:551i962TnA3QF,0*6F
!AIVDO,2,2,9,A,@00000000000002,2*5D
$GPRMC,090609.393,A,3510.63,S,13828.28,E,10.5,107.7,020720,,,*07
$IIVHW,107.7,T,107.7,M,5.4,N,10.0,K*65
$IIHDT,107.7,T*23
$GPGLL,3510.63,S,13828.28,E,090609.393,A*2E
$GPGGA,090609.393,3510.63,S,13828.28,E,1,4,3.1,2.0,M,,,,*21
$GPGSA,A,3,8,11,15,22,,,,,,,,,1.8,3.1,4.2*03
$GPZDA,090609.393,02,07,2020,+02,00*75
!AIVDO,1,1,,A,17PaewhP1`aqojQcoiKD=CFB0000,0*3C
$WIMWV,227.2,T,39.8,N,A*12
$WIMWD,227.2,T,227.2,M,39.8,N,20.5,M*5F
$WIMWV,104.7,R,35.8,N,A*1F
$IIMTW,7.5,C*21
$SDDPT,35.9,01*47
$SDDBT,117.9,f,35.9,M,19.7,F*08
$SDDBK,117.9,f,35.9,M,19.7,F*17
$SDDBS,117.9,f,35.9,M,19.7,F*0F
!AIVDO,2,1,9,A,57Paewh00001<To7;?@plD5<Tl0000000000000U1@:551i962TnA3QF,0*6F
!AIVDO,2,2,9,A,@00000000000002,2*5D
$GPRMC,090610.394,A,3510.63,S,13828.29,E,10.0,113.1,020720,,,*0F
$IIVHW,113.1,T,113.1,M,5.1,N,9.5,K*5D
$IIHDT,113.1,T*20
$GPGLL,3510.63,S,13828.29,E,090610.394,A*20
$GPGGA,090610.394,3510.63,S,13828.29,E,1,4,3.7,2.0,M,,,,*29
$GPGSA,A,3,8,11,15,22,,,,,,,,,1.5,3.7,3.5*08
$GPZDA,090610.394,02,07,2020,+02,00*7A
!AIVDO,1,1,,A,17PaewhP1SaqokOcoiHTJkRD0000,0*4E
$WIMWV,216.4,T,47.8,N,A*1F
$WIMWD,216.4,T,216.4,M,47.8,N,24.6,M*51
$WIMWV,91.2,R,46.5,N,A*2E
$IIMTW,7.5,C*21
$SDDPT,39.5,01*47
$SDDBT,129.7,f,39.5,M,21.6,F*01
$SDDBK,129.7,f,39.5,M,21.6,F*1E
$SDDBS,129.7,f,39.5,M,21.6,F*06
!AIVDO,2,1,9,A,57Paewh00001<To7;?@plD5<Tl0000000000000U1@:551i962TnA3QF,0*6F
!AIVDO,2,2,9,A,@00000000000002,2*5D
$GPRMC,090611.393,A,3510.63,S,13828.29,E,9.7,107.7,020720,,,*35
$IIVHW,107.7,T,107.7,M,5.0,N,9.3,K*5A
$IIHDT,107.7,T*23
$GPGLL,3510.63,S,13828.29,E,090611.393,A*26
$GPGGA,090611.393,3510.63,S,13828.29,E,1,4,4.5,2.0,M,,,,*2A
$GPGSA,A,3,8,11,15,22,,,,,,,,,1.5,4.5,4.2*0D
$GPZDA,090611.393,02,07,2020,+02,00*7C
!AIVDO,1,1,,A,17PaewhP1QaqolOcoiFT=CFF0000,0*0C
$WIMWV,227.2,T,57.3,N,A*11
$WIMWD,227.2,T,227.2,M,57.3,N,29.5,M*55
$WIMWV,110.4,R,53.2,N,A*13
$IIMTW,7.5,C*21
$SDDPT,35.9,01*47
$SDDBT,117.9,f,35.9,M,19.7,F*08
$SDDBK,117.9,f,35.9,M,19.7,F*17
$SDDBS,117.9,f,35.9,M,19.7,F*0F
!AIVDO,2,1,9,A,57Paewh00001<To7;?@plD5<Tl0000000000000U1@:551i962TnA3QF,0*6F
!AIVDO,2,2,9,A,@00000000000002,2*5D
$GPRMC,090612.394,A,3510.64,S,13828.29,E,9.7,113.1,020720,,,*35
$IIVHW,113.1,T,113.1,M,5.0,N,9.3,K*5A
$IIHDT,113.1,T*20
$GPGLL,3510.64,S,13828.29,E,090612.394,A*25
$GPGGA,090612.394,3510.64,S,13828.29,E,1,4,3.7,2.0,M,,,,*2C
$GPGSA,A,3,8,11,15,22,,,,,,,,,1.8,3.7,5.0*06
$GPZDA,090612.394,02,07,2020,+02,00*78
!AIVDO,1,1,,A,17PaewhP1QaqomKcoiClJkRH0000,0*71
$WIMWV,216.4,T,68.8,N,A*12
$WIMWD,216.4,T,216.4,M,68.8,N,35.4,M*5E
$WIMWV,95.2,R,67.2,N,A*2E
$IIMTW,7.5,C*21
$SDDPT,32.7,01*4E
$SDDBT,107.2,f,32.7,M,17.9,F*0B
$SDDBK,107.2,f,32.7,M,17.9,F*14
$SDDBS,107.2,f,32.7,M,17.9,F*0C
!AIVDO,2,1,9,A,57Paewh00001<To7;?@plD5<Tl0000000000000U1@:551i962TnA3QF,0*6F
!AIVDO,2,2,9,A,@00000000000002,2*5D
$GPRMC,090613.393,A,3510.64,S,13828.30,E,9.7,107.7,020720,,,*38
$IIVHW,107.7,T,107.7,M,5.0,N,9.3,K*5A
$IIHDT,107.7,T*23
$GPGLL,3510.64,S,13828.30,E,090613.393,A*2B
$GPGGA,090613.393,3510.64,S,13828.30,E,1,4,4.5,2.0,M,,,,*27
$GPGSA,A,3,8,11,15,22,,,,,,,,,1.5,4.5,5.0*0E
$GPZDA,090613.393,02,07,2020,+02,00*7E
!AIVDO,1,1,,A,17PaewhP1QaqonKcoiAl=CFJ0000,0*39
$WIMWV,206.1,T,77.8,N,A*18
$WIMWD,206.1,T,206.1,M,77.8,N,40.0,M*56
$WIMWV,91.2,R,76.9,N,A*21
$IIMTW,7.5,C*21
$SDDPT,29.7,01*44
$SDDBT,97.4,f,29.7,M,16.2,F*35
$SDDBK,97.4,f,29.7,M,16.2,F*2A
$SDDBS,97.4,f,29.7,M,16.2,F*32
!AIVDO,2,1,9,A,57Paewh00001<To7;?@plD5<Tl0000000000000U1@:551i962TnA3QF,0*6F
!AIVDO,2,2,9,A,@00000000000002,2*5D
$GPRMC,090614.393,A,3510.64,S,13828.30,E,9.7,113.1,020720,,,*3C
$IIVHW,113.1,T,113.1,M,5.0,N,9.3,K*5A
$IIHDT,113.1,T*20
$GPGLL,3510.64,S,13828.30,E,090614.393,A*2C
$GPGGA,090614.393,3510.64,S,13828.30,E,1,4,5.0,2.0,M,,,,*24
$GPGSA,A,3,8,11,15,22,,,,,,,,,1.8,5.0,4.2*04
$GPZDA,090614.393,02,07,2020,+02,00*79
!AIVDO,1,1,,A,17PaewhP1QaqooGcoi?DJkRL0000,0*2F
$WIMWV,216.4,T,77.8,N,A*1C
$WIMWD,216.4,T,216.4,M,77.8,N,40.0,M*56
$WIMWV,96.2,R,76.1,N,A*2E
$IIMTW,7.4,C*20
$SDDPT,27.0,01*4D
$SDDBT,88.6,f,27.0,M,14.8,F*38
$SDDBK,88.6,f,27.0,M,14.8,F*27
$SDDBS,88.6,f,27.0,M,14.8,F*3F
!AIVDO,2,1,9,A,57Paewh00001<To7;?@plD5<Tl0000000000000U1@:551i962TnA3QF,0*6F
!AIVDO,2,2,9,A,@00000000000002,2*5D
$GPRMC,090615.393,A,3510.64,S,13828.30,E,9.7,118.8,020720,,,*3F
$IIVHW,118.8,T,118.8,M,5.0,N,9.3,K*5A
$IIHDT,118.8,T*22
$GPGLL,3510.64,S,13828.30,E,090615.393,A*2D
$GPGGA,090615.393,3510.64,S,13828.30,E,1,4,4.2,2.0,M,,,,*26
$GPGSA,A,3,8,11,15,22,,,,,,,,,1.5,4.2,3.5*0A
$GPZDA,090615.393,02,07,2020,+02,00*78
!AIVDO,1,1,,A,17PaewhP1QaqopAcoi<4`kdN0000,0*5B
$WIMWV,206.1,T,77.8,N,A*18
$WIMWD,206.1,T,206.1,M,77.8,N,40.0,M*56
$WIMWV,80.3,R,78.8,N,A*2F
$IIMTW,7.5,C*21
$SDDPT,29.7,01*44
$SDDBT,97.4,f,29.7,M,16.2,F*35
$SDDBK,97.4,f,29.7,M,16.2,F*2A
$SDDBS,97.4,f,29.7,M,16.2,F*32
!AIVDO,2,1,9,A,57Paewh00001<To7;?@plD5<Tl0000000000000U1@:551i962TnA3QF,0*6F
!AIVDO,2,2,9,A,@00000000000002,2*5D
$GPRMC,090616.392,A,3510.64,S,13828.30,E,10.2,113.1,020720,,,*02
$IIVHW,113.1,T,113.1,M,5.3,N,9.7,K*5D
$IIHDT,113.1,T*20
$GPGLL,3510.64,S,13828.30,E,090616.392,A*2F
$GPGGA,090616.392,3510.64,S,13828.30,E,1,4,5.0,2.0,M,,,,*27
$GPGSA,A,3,8,11,15,22,,,,,,,,,1.5,5.0,4.2*09
$GPZDA,090616.392,02,07,2020,+02,00*7A
!AIVDO,1,1,,A,17PaewhP1VaqoqAcoi9DJkRP0000,0*2A
$WIMWV,216.4,T,64.8,N,A*1E
$WIMWD,216.4,T,216.4,M,64.8,N,33.3,M*53
$WIMWV,94.3,R,63.2,N,A*2A
$IIMTW,7.4,C*20
$SDDPT,27.0,01*4D
$SDDBT,88.6,f,27.0,M,14.8,F*38
$SDDBK,88.6,f,27.0,M,14.8,F*27
$SDDBS,88.6,f,27.0,M,14.8,F*3F
!AIVDO,2,1,9,A,57Paewh00001<To7;?@plD5<Tl0000000000000U1@:551i962TnA3QF,0*6F
!AIVDO,2,2,9,A,@00000000000002,2*5D
$GPRMC,090617.393,A,3510.64,S,13828.31,E,10.7,107.7,020720,,,*05
$IIVHW,107.7,T,107.7,M,5.5,N,10.2,K*66
$IIHDT,107.7,T*23
$GPGLL,3510.64,S,13828.31,E,090617.393,A*2E
$GPGGA,090617.393,3510.64,S,13828.31,E,1,4,5.0,2.0,M,,,,*26
$GPGSA,A,3,8,11,15,22,,,,,,,,,1.8,5.0,5.0*07
$GPZDA,090617.393,02,07,2020,+02,00*7A
!AIVDO,1,1,,A,17PaewhP1caqorGcoi6l=CFR0000,0*74
$WIMWV,206.1,T,77.8,N,A*18
$WIMWD,206.1,T,206.1,M,77.8,N,40.0,M*56
$WIMWV,90.5,R,76.9,N,A*27
$IIMTW,7.5,C*21
$SDDPT,24.5,01*4B
$SDDBT,80.5,f,24.5,M,13.4,F*3E
$SDDBK,80.5,f,24.5,M,13.4,F*21
$SDDBS,80.5,f,24.5,M,13.4,F*39
!AIVDO,2,1,9,A,57Paewh00001<To7;?@plD5<Tl0000000000000U1@:551i962TnA3QF,0*6F
!AIVDO,2,2,9,A,@00000000000002,2*5D
$GPRMC,090618.393,A,3510.64,S,13828.31,E,11.3,113.1,020720,,,*0C
$IIVHW,113.1,T,113.1,M,5.8,N,10.7,K*6E
$IIHDT,113.1,T*20
$GPGLL,3510.64,S,13828.31,E,090618.393,A*21
$GPGGA,090618.393,3510.64,S,13828.31,E,1,4,4.2,2.0,M,,,,*2A
$GPGSA,A,3,8,11,15,22,,,,,,,,,2.2,4.2,5.0*0D
$GPZDA,090618.393,02,07,2020,+02,00*75
!AIVDO,1,1,,A,17PaewhP1haqosMcoi3lJkRT0000,0*3C
$WIMWV,216.4,T,64.8,N,A*1E
$WIMWD,216.4,T,216.4,M,64.8,N,33.3,M*53
$WIMWV,93.3,R,63.2,N,A*2D
$IIMTW,7.5,C*21
$SDDPT,22.3,01*4B
$SDDBT,73.2,f,22.3,M,12.2,F*32
$SDDBK,73.2,f,22.3,M,12.2,F*2D
$SDDBS,73.2,f,22.3,M,12.2,F*35
!AIVDO,2,1,9,A,57Paewh00001<To7;?@plD5<Tl0000000000000U1@:551i962TnA3QF,0*6F
!AIVDO,2,2,9,A,@00000000000002,2*5D
$GPRMC,090619.393,A,3510.64,S,13828.32,E,10.7,118.8,020720,,,*09
$IIVHW,118.8,T,118.8,M,5.5,N,10.2,K*66
$IIHDT,118.8,T*22
$GPGLL,3510.64,S,13828.32,E,090619.393,A*23
$GPGGA,090619.393,3510.64,S,13828.32,E,1,4,3.5,2.0,M,,,,*28
$GPGSA,A,3,8,11,15,22,,,,,,,,,1.8,3.5,5.0*04
$GPZDA,090619.393,02,07,2020,+02,00*74
!AIVDO,1,1,,A,17PaewhP1caqotMcoi0D`kdV0000,0*05
$WIMWV,206.1,T,54.0,N,A*11
$WIMWD,206.1,T,206.1,M,54.0,N,27.8,M*56
$WIMWV,76.2,R,55.5,N,A*25
$IIMTW,7.6,C*22
$SDDPT,24.5,01*4B
$SDDBT,80.5,f,24.5,M,13.4,F*3E
$SDDBK,80.5,f,24.5,M,13.4,F*21
$SDDBS,80.5,f,24.5,M,13.4,F*39
!AIVDO,2,1,9,A,57Paewh00001<To7;?@plD5<Tl0000000000000U1@:551i962TnA3QF,0*6F
!AIVDO,2,2,9,A,@00000000000002,2*5D
$GPRMC,090620.394,A,3510.64,S,13828.32,E,11.3,113.1,020720,,,*03
$IIVHW,113.1,T,113.1,M,5.8,N,10.7,K*6E
$IIHDT,113.1,T*20
$GPGLL,3510.64,S,13828.32,E,090620.394,A*2E
$GPGGA,090620.394,3510.64,S,13828.32,E,1,4,4.2,2.0,M,,,,*25
$GPGSA,A,3,8,11,15,22,,,,,,,,,1.5,4.2,4.2*0A
$GPZDA,090620.394,02,07,2020,+02,00*79
!AIVDO,1,1,,A,17PaewhP1haqouScohuDJkR`0000,0*7F
$WIMWV,216.4,T,45.0,N,A*15
$WIMWD,216.4,T,216.4,M,45.0,N,23.1,M*5B
$WIMWV,88.8,R,43.8,N,A*24
$IIMTW,7.7,C*23
$SDDPT,22.3,01*4B
$SDDBT,73.2,f,22.3,M,12.2,F*32
$SDDBK,73.2,f,22.3,M,12.2,F*2D
$SDDBS,73.2,f,22.3,M,12.2,F*35
!AIVDO,2,1,9,A,57Paewh00001<To7;?@plD5<Tl0000000000000U1@:551i962TnA3QF,0*6F
!AIVDO,2,2,9,A,@00000000000002,2*5D
$GPRMC,090621.394,A,3510.65,S,13828.32,E,11.8,107.7,020720,,,*0B
$IIVHW,107.7,T,107.7,M,6.1,N,11.3,K*61
$IIHDT,107.7,T*23
$GPGLL,3510.65,S,13828.32,E,090621.394,A*2E
$GPGGA,090621.394,3510.65,S,13828.32,E,1,4,3.5,2.0,M,,,,*25
$GPGSA,A,3,8,11,15,22,,,,,,,,,1.5,3.5,3.5*0A
$GPZDA,090621.394,02,07,2020,+02,00*78
!AIVDO,1,1,,A,17PaewhP1naqovgcohrl=CFb0000,0*28
$WIMWV,206.1,T,54.0,N,A*11
$WIMWD,206.1,T,206.1,M,54.0,N,27.8,M*56
$WIMWV,85.8,R,53.6,N,A*26
$IIMTW,7.8,C*2C
$SDDPT,20.3,01*49
$SDDBT,66.6,f,20.3,M,11.1,F*30
$SDDBK,66.6,f,20.3,M,11.1,F*2F
$SDDBS,66.6,f,20.3,M,11.1,F*37
!AIVDO,2,1,9,A,57Paewh00001<To7;?@plD5<Tl0000000000000U1@:551i962TnA3QF,0*6F
!AIVDO,2,2,9,A,@00000000000002,2*5D
$GPRMC,090622.393,A,3510.65,S,13828.33,E,12.4,113.1,020720,,,*02
$IIVHW,113.1,T,113.1,M,6.4,N,11.8,K*6F
$IIHDT,113.1,T*20
$GPGLL,3510.65,S,13828.33,E,090622.393,A*2B
$GPGGA,090622.393,3510.65,S,13828.33,E,1,4,4.2,2.0,M,,,,*20
$GPGSA,A,3,8,11,15,22,,,,,,,,,1.5,4.2,2.9*07
$GPZDA,090622.393,02,07,2020,+02,00*7C
!AIVDO,1,1,,A,17PaewhP1taqowucohoDJkRd0000,0*59
$WIMWV,216.4,T,45.0,N,A*15
$WIMWD,216.4,T,216.4,M,45.0,N,23.1,M*5B
$WIMWV,87.3,R,43.8,N,A*20
$IIMTW,7.8,C*2C
$SDDPT,22.3,01*4B
$SDDBT,73.2,f,22.3,M,12.2,F*32
$SDDBK,73.2,f,22.3,M,12.2,F*2D
$SDDBS,73.2,f,22.3,M,12.2,F*35
!AIVDO,2,1,9,A,57Paewh00001<To7;?@plD5<Tl0000000000000U1@:551i962TnA3QF,0*6F
!AIVDO,2,2,9,A,@00000000000002,2*5D
$GPRMC,090623.393,A,3510.65,S,13828.33,E,11.8,118.8,020720,,,*0E
$IIVHW,118.8,T,118.8,M,6.1,N,11.3,K*61
$IIHDT,118.8,T*22
$GPGLL,3510.65,S,13828.33,E,090623.393,A*2A
$GPGGA,090623.393,3510.65,S,13828.33,E,1,4,3.5,2.0,M,,,,*21
$GPGSA,A,3,8,11,15,22,,,,,,,,,1.5,3.5,3.5*0A
$GPZDA,090623.393,02,07,2020,+02,00*7D
!AIVDO,1,1,,A,17PaewhP1naqp13cohkD`kdf0000,0*46
$WIMWV,206.1,T,54.0,N,A*11
$WIMWD,206.1,T,206.1,M,54.0,N,27.8,M*56
$WIMWV,75.1,R,55.8,N,A*28
$IIMTW,7.9,C*2D
$SDDPT,24.5,01*4B
$SDDBT,80.5,f,24.5,M,13.4,F*3E
$SDDBK,80.5,f,24.5,M,13.4,F*21
$SDDBS,80.5,f,24.5,M,13.4,F*39
!AIVDO,2,1,9,A,57Paewh00001<To7;?@plD5<Tl0000000000000U1@:551i962TnA3QF,0*6F
!AIVDO,2,2,9,A,@00000000000002,2*5D
$GPRMC,090624.393,A,3510.65,S,13828.33,E,12.4,113.1,020720,,,*04
$IIVHW,113.1,T,113.1,M,6.4,N,11.8,K*6F
$IIHDT,113.1,T*20
$GPGLL,3510.65,S,13828.33,E,090624.393,A*2D
$GPGGA,090624.393,3510.65,S,13828.33,E,1,4,2.9,2.0,M,,,,*2B
$GPGSA,A,3,8,11,15,22,,,,,,,,,1.5,2.9,4.2*07
$GPZDA,090624.393,02,07,2020,+02,00*7A
!AIVDO,1,1,,A,17PaewhP1taqp2Acohh4JkRh0000,0*4C
$WIMWV,216.4,T,45.0,N,A*15
$WIMWD,216.4,T,216.4,M,45.0,N,23.1,M*5B
$WIMWV,87.3,R,43.8,N,A*20
$IIMTW,7.8,C*2C
$SDDPT,22.3,01*4B
$SDDBT,73.2,f,22.3,M,12.2,F*32
$SDDBK,73.2,f,22.3,M,12.2,F*2D
$SDDBS,73.2,f,22.3,M,12.2,F*35
!AIVDO,2,1,9,A,57Paewh00001<To7;?@plD5<Tl0000000000000U1@:551i962TnA3QF,0*6F
!AIVDO,2,2,9,A,@00000000000002,2*5D
$GPRMC,090625.394,A,3510.65,S,13828.34,E,11.8,118.8,020720,,,*08
$IIVHW,118.8,T,118.8,M,6.1,N,11.3,K*61
$IIHDT,118.8,T*22
$GPGLL,3510.65,S,13828.34,E,090625.394,A*2C
$GPGGA,090625.394,3510.65,S,13828.34,E,1,4,3.5,2.0,M,,,,*27
$GPGSA,A,3,8,11,15,22,,,,,,,,,1.8,3.5,3.5*07
$GPZDA,090625.394,02,07,2020,+02,00*7C
!AIVDO,1,1,,A,17PaewhP1naqp3Gcohd4`kdj0000,0*43
$WIMWV,227.2,T,54.0,N,A*11
$WIMWD,227.2,T,227.2,M,54.0,N,27.8,M*56
$WIMWV,95.9,R,51.5,N,A*27
$IIMTW,7.8,C*2C
$SDDPT,24.5,01*4B
$SDDBT,80.5,f,24.5,M,13.4,F*3E
$SDDBK,80.5,f,24.5,M,13.4,F*21
$SDDBS,80.5,f,24.5,M,13.4,F*39
!AIVDO,2,1,9,A,57Paewh00001<To7;?@plD5<Tl0000000000000U1@:551i962TnA3QF,0*6F
!AIVDO,2,2,9,A,@00000000000002,2*5D
$GPRMC,090626.393,A,3510.65,S,13828.34,E,12.4,113.1,020720,,,*01
$IIVHW,113.1,T,113.1,M,6.4,N,11.8,K*6F
$IIHDT,113.1,T*20
$GPGLL,3510.65,S,13828.34,E,090626.393,A*28
$GPGGA,090626.393,3510.65,S,13828.34,E,1,4,4.2,2.0,M,,,,*23
$GPGSA,A,3,8,11,15,22,,,,,,,,,2.2,4.2,4.2*0E
$GPZDA,090626.393,02,07,2020,+02,00*78
!AIVDO,1,1,,A,17PaewhP1taqp4Scoh`lJkRl0000,0*0C
$WIMWV,216.4,T,64.8,N,A*1E
$WIMWD,216.4,T,216.4,M,64.8,N,33.3,M*53
$WIMWV,92.3,R,63.1,N,A*2F
$IIMTW,7.7,C*23
$SDDPT,22.3,01*4B
$SDDBT,73.2,f,22.3,M,12.2,F*32
$SDDBK,73.2,f,22.3,M,12.2,F*2D
$SDDBS,73.2,f,22.3,M,12.2,F*35
!AIVDO,2,1,9,A,57Paewh00001<To7;?@plD5<Tl0000000000000U1@:551i962TnA3QF,0*6F
!AIVDO,2,2,9,A,@00000000000002,2*5D
$GPRMC,090627.393,A,3510.65,S,13828.34,E,13.0,118.8,020720,,,*07
$IIVHW,118.8,T,118.8,M,6.7,N,12.4,K*63
$IIHDT,118.8,T*22
$GPGLL,3510.65,S,13828.34,E,090627.393,A*29
$GPGGA,090627.393,3510.65,S,13828.34,E,1,4,5.0,2.0,M,,,,*21
$GPGSA,A,3,8,11,15,22,,,,,,,,,2.6,5.0,3.5*09
$GPZDA,090627.393,02,07,2020,+02,00*79
!AIVDO,1,1,,A,17PaewhP22aqp5icohTD`kdn0000,0*70
$WIMWV,227.2,T,77.8,N,A*18
$WIMWD,227.2,T,227.2,M,77.8,N,40.0,M*56
$WIMWV,98.9,R,74.7,N,A*2F
$IIMTW,7.6,C*22
$SDDPT,20.3,01*49
$SDDBT,66.6,f,20.3,M,11.1,F*30
$SDDBK,66.6,f,20.3,M,11.1,F*2F
$SDDBS,66.6,f,20.3,M,11.1,F*37
!AIVDO,2,1,9,A,57Paewh00001<To7;?@plD5<Tl0000000000000U1@:551i962TnA3QF,0*6F
!AIVDO,2,2,9,A,@00000000000002,2*5D
$GPRMC,090628.393,A,3510.66,S,13828.35,E,12.4,124.7,020720,,,*0F
$IIVHW,124.7,T,124.7,M,6.4,N,11.8,K*6F
$IIHDT,124.7,T*22
$GPGLL,3510.66,S,13828.35,E,090628.393,A*24
$GPGGA,090628.393,3510.66,S,13828.35,E,1,4,5.0,2.0,M,,,,*2C
$GPGSA,A,3,8,11,15,22,,,,,,,,,2.2,5.0,2.9*00
$GPZDA,090628.393,02,07,2020,+02,00*76
!AIVDO,1,1,,A,17PaewhP1taqp6ocohOTokpp0000,0*3E
$WIMWV,238.6,T,64.8,N,A*10
$WIMWD,238.6,T,238.6,M,64.8,N,33.3,M*53
$WIMWV,103.1,R,60.8,N,A*1E
$IIMTW,7.7,C*23
$SDDPT,22.3,01*4B
$SDDBT,73.2,f,22.3,M,12.2,F*32
$SDDBK,73.2,f,22.3,M,12.2,F*2D
$SDDBS,73.2,f,22.3,M,12.2,F*35
!AIVDO,2,1,9,A,57Paewh00001<To7;?@plD5<Tl0000000000000U1@:551i962TnA3QF,0*6F
!AIVDO,2,2,9,A,@00000000000002,2*5D
$GPRMC,090629.392,A,3510.66,S,13828.35,E,11.8,130.9,020720,,,*0B
$IIVHW,130.9,T,130.9,M,6.1,N,11.3,K*61
$IIHDT,130.9,T*29
$GPGLL,3510.66,S,13828.35,E,090629.392,A*24
$GPGGA,090629.392,3510.66,S,13828.35,E,1,4,5.0,2.0,M,,,,*2C
$GPGSA,A,3,8,11,15,22,,,,,,,,,1.8,5.0,2.4*04
$GPZDA,090629.392,02,07,2020,+02,00*76
!AIVDO,1,1,,A,17PaewhP1naqp7kcohJ57D4r0000,0*74
$WIMWV,227.2,T,54.0,N,A*11
$WIMWD,227.2,T,227.2,M,54.0,N,27.8,M*56
$WIMWV,83.7,R,54.0,N,A*2E
$IIMTW,7.8,C*2C
$SDDPT,24.5,01*4B
$SDDBT,80.5,f,24.5,M,13.4,F*3E
$SDDBK,80.5,f,24.5,M,13.4,F*21
$SDDBS,80.5,f,24.5,M,13.4,F*39
!AIVDO,2,1,9,A,57Paewh00001<To7;?@plD5<Tl0000000000000U1@:551i962TnA3QF,0*6F
!AIVDO,2,2,9,A,@00000000000002,2*5D
$GPRMC,090630.393,A,3510.66,S,13828.35,E,12.4,137.5,020720,,,*06
$IIVHW,137.5,T,137.5,M,6.4,N,11.8,K*6F
$IIHDT,137.5,T*22
$GPGLL,3510.66,S,13828.35,E,090630.393,A*2D
$GPGGA,090630.393,3510.66,S,13828.35,E,1,4,5.0,2.0,M,,,,*25
$GPGSA,A,3,8,11,15,22,,,,,,,,,1.5,5.0,2.9*04
$GPZDA,090630.393,02,07,2020,+02,00*7F
!AIVDO,1,1,,A,17PaewhP1taqp8ecohCmGTBt0000,0*2E
$WIMWV,216.4,T,64.8,N,A*1E
$WIMWD,216.4,T,216.4,M,64.8,N,33.3,M*53
$WIMWV,68.6,R,68.3,N,A*26
$IIMTW,7.7,C*23
$SDDPT,22.3,01*4B
$SDDBT,73.2,f,22.3,M,12.2,F*32
$SDDBK,73.2,f,22.3,M,12.2,F*2D
$SDDBS,73.2,f,22.3,M,12.2,F*35
!AIVDO,2,1,9,A,57Paewh00001<To7;?@plD5<Tl0000000000000U1@:551i962TnA3QF,0*6F
!AIVDO,2,2,9,A,@00000000000002,2*5D
$GPRMC,090631.394,A,3510.66,S,13828.36,E,11.8,144.4,020720,,,*09
$IIVHW,144.4,T,144.4,M,6.1,N,11.3,K*61
$IIHDT,144.4,T*27
$GPGLL,3510.66,S,13828.36,E,090631.394,A*28
$GPGGA,090631.394,3510.66,S,13828.36,E,1,4,5.0,2.0,M,,,,*20
$GPGSA,A,3,8,11,15,22,,,,,,,,,1.5,5.0,2.4*09
$GPZDA,090631.394,02,07,2020,+02,00*79
!AIVDO,1,1,,A,17PaewhP1naqp9Kcoh=5`lPv0000,0*32
$WIMWV,227.2,T,54.0,N,A*11
$WIMWD,227.2,T,227.2,M,54.0,N,27.8,M*56
$WIMWV,70.9,R,56.7,N,A*29
$IIMTW,7.6,C*22
$SDDPT,20.3,01*49
$SDDBT,66.6,f,20.3,M,11.1,F*30
$SDDBK,66.6,f,20.3,M,11.1,F*2F
$SDDBS,66.6,f,20.3,M,11.1,F*37
!AIVDO,2,1,9,A,57Paewh00001<To7;?@plD5<Tl0000000000000U1@:551i962TnA3QF,0*6F
!AIVDO,2,2,9,A,@00000000000002,2*5D
$GPRMC,090632.393,A,3510.67,S,13828.36,E,12.4,137.5,020720,,,*06
$IIVHW,137.5,T,137.5,M,6.4,N,11.8,K*6F
$IIHDT,137.5,T*22
$GPGLL,3510.67,S,13828.36,E,090632.393,A*2D
$GPGGA,090632.393,3510.67,S,13828.36,E,1,4,5.0,2.0,M,,,,*25
$GPGSA,A,3,8,11,15,22,,,,,,,,,1.8,5.0,2.9*09
$GPZDA,090632.393,02,07,2020,+02,00*7D
!AIVDO,1,1,,A,17PaewhP1taqp:Ccoh6mGTC00000,0*3A
$WIMWV,238.6,T,45.0,N,A*1B
$WIMWD,238.6,T,238.6,M,45.0,N,23.1,M*5B
$WIMWV,85.2,R,44.3,N,A*2F
$IIMTW,7.7,C*23
$SDDPT,18.4,01*45
$SDDBT,60.5,f,18.4,M,10.1,F*38
$SDDBK,60.5,f,18.4,M,10.1,F*27
$SDDBS,60.5,f,18.4,M,10.1,F*3F
!AIVDO,2,1,9,A,57Paewh00001<To7;?@plD5<Tl0000000000000U1@:551i962TnA3QF,0*6F
!AIVDO,2,2,9,A,@00000000000002,2*5D
$GPRMC,090633.394,A,3510.67,S,13828.36,E,13.0,130.9,020720,,,*0E
$IIVHW,130.9,T,130.9,M,6.7,N,12.4,K*63
$IIHDT,130.9,T*29
$GPGLL,3510.67,S,13828.36,E,090633.394,A*2B
$GPGGA,090633.394,3510.67,S,13828.36,E,1,4,4.2,2.0,M,,,,*20
$GPGSA,A,3,8,11,15,22,,,,,,,,,2.2,4.2,3.5*0E
$GPZDA,090633.394,02,07,2020,+02,00*7B
!AIVDO,1,1,,A,17PaewhP22aqp;Gcoh0m7D520000,0*68
$WIMWV,250.5,T,37.5,N,A*16
$WIMWD,250.5,T,250.5,M,37.5,N,19.3,M*50
$WIMWV,99.5,R,33.1,N,A*27
$IIMTW,7.8,C*2C
$SDDPT,20.3,01*49
$SDDBT,66.6,f,20.3,M,11.1,F*30
$SDDBK,66.6,f,20.3,M,11.1,F*2F
$SDDBS,66.6,f,20.3,M,11.1,F*37
!AIVDO,2,1,9,A,57Paewh00001<To7;?@plD5<Tl0000000000000U1@:551i962TnA3QF,0*6F
!AIVDO,2,2,9,A,@00000000000002,2*5D
$GPRMC,090634.393,A,3510.67,S,13828.37,E,12.4,137.5,020720,,,*01
$IIVHW,137.5,T,137.5,M,6.4,N,11.8,K*6F
$IIHDT,137.5,T*22
$GPGLL,3510.67,S,13828.37,E,090634.393,A*2A
$GPGGA,090634.393,3510.67,S,13828.37,E,1,4,3.5,2.0,M,,,,*21
$GPGSA,A,3,8,11,15,22,,,,,,,,,1.8,3.5,4.2*07
$GPZDA,090634.393,02,07,2020,+02,00*7B
!AIVDO,1,1,,A,17PaewhP1taqp<?cogrUGTC40000,0*37
$WIMWV,263.0,T,31.2,N,A*12
$WIMWD,263.0,T,263.0,M,31.2,N,16.1,M*5C
$WIMWV,102.8,R,26.1,N,A*1D
$IIMTW,7.8,C*2C
$SDDPT,18.4,01*45
$SDDBT,60.5,f,18.4,M,10.1,F*38
$SDDBK,60.5,f,18.4,M,10.1,F*27
$SDDBS,60.5,f,18.4,M,10.1,F*3F
!AIVDO,2,1,9,A,57Paewh00001<To7;?@plD5<Tl0000000000000U1@:551i962TnA3QF,0*6F
!AIVDO,2,2,9,A,@00000000000002,2*5D
$GPRMC,090635.393,A,3510.67,S,13828.37,E,11.8,144.4,020720,,,*0A
$IIVHW,144.4,T,144.4,M,6.1,N,11.3,K*61
$IIHDT,144.4,T*27
$GPGLL,3510.67,S,13828.37,E,090635.393,A*2B
$GPGGA,090635.393,3510.67,S,13828.37,E,1,4,4.2,2.0,M,,,,*20
$GPGSA,A,3,8,11,15,22,,,,,,,,,2.2,4.2,3.5*0E
$GPZDA,090635.393,02,07,2020,+02,00*7A
!AIVDO,1,1,,A,17PaewhP1naqp<wcogkm`lQ60000,0*4B
$WIMWV,250.5,T,37.5,N,A*16
$WIMWD,250.5,T,250.5,M,37.5,N,19.3,M*50
$WIMWV,87.8,R,36.0,N,A*21
$IIMTW,7.8,C*2C
$SDDPT,16.8,01*47
$SDDBT,55.0,f,16.8,M,9.2,F*02
$SDDBK,55.0,f,16.8,M,9.2,F*1D
$SDDBS,55.0,f,16.8,M,9.2,F*05
!AIVDO,2,1,9,A,57Paewh00001<To7;?@plD5<Tl0000000000000U1@:551i962TnA3QF,0*6F
!AIVDO,2,2,9,A,@00000000000002,2*5D
$GPRMC,090636.394,A,3510.68,S,13828.37,E,11.3,151.6,020720,,,*0C
$IIVHW,151.6,T,151.6,M,5.8,N,10.7,K*6E
$IIHDT,151.6,T*21
$GPGLL,3510.68,S,13828.37,E,090636.394,A*20
$GPGGA,090636.394,3510.68,S,13828.37,E,1,4,5.0,2.0,M,,,,*28
$GPGSA,A,3,8,11,15,22,,,,,,,,,1.8,5.0,2.9*09
$GPZDA,090636.394,02,07,2020,+02,00*7E
!AIVDO,1,1,,A,17PaewhP1haqp=Scogdmrlg80000,0*4D
$WIMWV,263.0,T,31.2,N,A*12
$WIMWD,263.0,T,263.0,M,31.2,N,16.1,M*5C
$WIMWV,90.4,R,29.1,N,A*24
$IIMTW,7.7,C*23
$SDDPT,15.2,01*4E
$SDDBT,50.0,f,15.2,M,8.3,F*0E
$SDDBK,50.0,f,15.2,M,8.3,F*11
$SDDBS,50.0,f,15.2,M,8.3,F*09
!AIVDO,2,1,9,A,57Paewh00001<To7;?@plD5<Tl0000000000000U1@:551i962TnA3QF,0*6F
!AIVDO,2,2,9,A,@00000000000002,2*5D
$GPRMC,090637.394,A,3510.68,S,13828.37,E,11.8,144.4,020720,,,*00
$IIVHW,144.4,T,144.4,M,6.1,N,11.3,K*61
$IIHDT,144.4,T*27
$GPGLL,3510.68,S,13828.37,E,090637.394,A*21
$GPGGA,090637.394,3510.68,S,13828.37,E,1,4,5.0,2.0,M,,,,*29
$GPGSA,A,3,8,11,15,22,,,,,,,,,2.2,5.0,3.5*0D
$GPZDA,090637.394,02,07,2020,+02,00*7F
!AIVDO,1,1,,A,17PaewhP1naqp>AcogVE`lQ:0000,0*66
$WIMWV,250.5,T,37.5,N,A*16
$WIMWD,250.5,T,250.5,M,37.5,N,19.3,M*50
$WIMWV,87.8,R,36.0,N,A*21
$IIMTW,7.6,C*22
$SDDPT,13.9,01*43
$SDDBT,45.5,f,13.9,M,7.6,F*08
$SDDBK,45.5,f,13.9,M,7.6,F*17
$SDDBS,45.5,f,13.9,M,7.6,F*0F
!AIVDO,2,1,9,A,57Paewh00001<To7;?@plD5<Tl0000000000000U1@:551i962TnA3QF,0*6F
!AIVDO,2,2,9,A,@00000000000002,2*5D