$GPVTG,44.894,T,44.894,M,546.989,N,1013.024,K,D*1C
$GPGLL,4154.16691999,N,01229.78196000,E,094339.80,A,D*6D
$AIPOV,094339.8025,44.894,44.894,-44.894,99.999,-99.999,-99.999,0.00,0.00,0.00,41.90278199,012.49636600,0.000,197.948,200.000,-200.000,197.948,-200.000,-200.000,44.894,00000001*55
$HEHDT,44.89,T*2E
$HETHS,44.89,S*3E
$PIXSE,ATITUD,44.894,44.894*62
$PIXSE,POSITI,41.90278199,12.49636600,0.000*6A
$PIXSE,SPEED_,200.000,197.948,200.000*6B
$PIXSE,UTMWGS,T,33,292332.434,4642013.583,0.000*12
$PIXSE,HEAVE_,-5.000,-5.000,-5.000*51
$PIXSE,TIME__,094339.802570*60
$PIXSE,STDHRP,0.009,0.019,0.050*74
$PIXSE,STDPOS,0.00,0.00,0.00*46
$PIXSE,STDSPD,0.000,0.000,0.000*7D
$PIXSE,ALGSTS,00000300,0000000F*10
$PIXSE,STATUS,00000000,00010000*6E
$PIXSE,HT_STS,FFFD5551*46
$GPGGA,094339.81,4154.16691999,N,01229.78196000,E,4,03,0.000,0.000,M,,M,,*74
$GPGST,094339.81,0.000,50.000,50.000,0.000,0.000,0.000,0.000*5A
$GPVTG,44.910,T,44.910,M,547.387,N,1013.761,K,D*1F
$GPGLL,4154.16691999,N,01229.78196000,E,094339.81,A,D*6C
$GPGGA,094339.82,4154.16691999,N,01229.78196000,E,4,03,0.000,0.000,M,,M,,*77
$GPGST,094339.82,0.000,50.000,50.000,0.000,0.000,0.000,0.000*59
$GPVTG,44.925,T,44.925,M,547.790,N,1014.508,K,D*17
$GPGLL,4154.16691999,N,01229.78196000,E,094339.82,A,D*6F
$GPGGA,094339.83,4154.16691999,N,01229.78196000,E,4,03,0.000,0.000,M,,M,,*76
$GPGST,094339.83,0.000,50.000,50.000,0.000,0.000,0.000,0.000*58
$GPVTG,44.941,T,44.941,M,548.205,N,1015.277,K,D*1F
$GPGLL,4154.16691999,N,01229.78196000,E,094339.83,A,D*6E
$GPGGA,094339.84,4154.16691999,N,01229.78196000,E,4,03,0.000,0.000,M,,M,,*71
$GPGST,094339.84,0.000,50.000,50.000,0.000,0.000,0.000,0.000*5F
$GPVTG,44.957,T,44.957,M,548.628,N,1016.060,K,D*13
$GPGLL,4154.16691999,N,01229.78196000,E,094339.84,A,D*69
$HEHDT,44.96,T*20
$HEROT,5999.99,A*27
$GPGGA,094339.85,4154.16691999,N,01229.78196000,E,4,03,0.000,0.000,M,,M,,*70
$GPGST,094339.85,0.000,50.000,50.000,0.000,0.000,0.000,0.000*5E
$GPVTG,44.972,T,44.972,M,549.055,N,1016.850,K,D*15
$GPGLL,4154.16691999,N,01229.78196000,E,094339.85,A,D*68
$AIPOV,094339.8525,44.972,44.972,-44.972,99.999,-99.999,-99.999,0.00,0.00,0.00,41.90278199,012.49636600,0.000,199.456,200.000,-200.000,199.456,-200.000,-200.000,44.972,00000001*50
$HEHDT,44.97,T*21
$HETHS,44.97,S*31
$PIXSE,ATITUD,44.972,44.972*62
$PIXSE,POSITI,41.90278199,12.49636600,0.000*6A
$PIXSE,SPEED_,200.000,199.456,200.000*67
$PIXSE,UTMWGS,T,33,292332.434,4642013.583,0.000*12
$PIXSE,HEAVE_,-5.000,-5.000,-5.000*51
$PIXSE,TIME__,094339.852573*66
$PIXSE,STDHRP,0.009,0.019,0.050*74
$PIXSE,STDPOS,0.00,0.00,0.00*46
$PIXSE,STDSPD,0.000,0.000,0.000*7D
$PIXSE,ALGSTS,00000300,0000000F*10
$PIXSE,STATUS,00000000,00010000*6E
$PIXSE,HT_STS,FFFD5551*46
$GPGGA,094339.86,4154.16691999,N,01229.78196000,E,4,03,0.000,0.000,M,,M,,*73
$GPGST,094339.86,0.000,50.000,50.000,0.000,0.000,0.000,0.000*5D
$GPVTG,44.988,T,44.988,M,549.484,N,1017.645,K,D*16
$GPGLL,4154.16691999,N,01229.78196000,E,094339.86,A,D*6B
$GPGGA,094339.87,4154.16691999,N,01229.78196000,E,4,03,0.000,0.000,M,,M,,*72
$GPGST,094339.87,0.000,50.000,50.000,0.000,0.000,0.000,0.000*5C
$GPVTG,45.004,T,45.004,M,549.916,N,1018.444,K,D*1C
$GPGLL,4154.16691999,N,01229.78196000,E,094339.87,A,D*6A
$GPGGA,094339.88,4154.16691999,N,01229.78196000,E,4,03,0.000,0.000,M,,M,,*7D
$GPGST,094339.88,0.000,50.000,50.000,0.000,0.000,0.000,0.000*53
$GPVTG,45.019,T,45.019,M,550.347,N,1019.244,K,D*1D
$GPGLL,4154.16691999,N,01229.78196000,E,094339.88,A,D*65
$GPGGA,094339.89,4154.16691999,N,01229.78196000,E,4,03,0.000,0.000,M,,M,,*7C
$GPGST,094339.89,0.000,50.000,50.000,0.000,0.000,0.000,0.000*52
$GPVTG,45.035,T,45.035,M,550.778,N,1020.041,K,D*18
$GPGLL,4154.16691999,N,01229.78196000,E,094339.89,A,D*64
$HEHDT,45.04,T*2A
$HEROT,5999.99,A*27
$GPGGA,094339.90,4154.16691999,N,01229.78196000,E,4,03,0.000,0.000,M,,M,,*74
$GPGST,094339.90,0.000,50.000,50.000,0.000,0.000,0.000,0.000*5A
$GPVTG,45.051,T,45.051,M,551.204,N,1020.830,K,D*19
$GPGLL,4154.16691999,N,01229.78196000,E,094339.90,A,D*6C
$AIPOV,094339.9025,45.051,45.051,-45.051,99.999,-99.999,-99.999,0.00,0.00,0.00,41.90278199,012.49636600,0.000,201.018,200.000,-200.000,201.018,-200.000,-200.000,45.051,00000001*54
$HEHDT,45.05,T*2B
$HETHS,45.05,S*3B
$PIXSE,ATITUD,45.051,45.051*62
$PIXSE,POSITI,41.90278199,12.49636600,0.000*6A
$PIXSE,SPEED_,200.000,201.018,200.000*6B
$PIXSE,UTMWGS,T,33,292332.434,4642013.583,0.000*12
$PIXSE,HEAVE_,-5.000,-5.000,-5.000*51
$PIXSE,TIME__,094339.902572*63
$PIXSE,STDHRP,0.009,0.019,0.050*74
$PIXSE,STDPOS,0.00,0.00,0.00*46
$PIXSE,STDSPD,0.000,0.000,0.000*7D
$PIXSE,ALGSTS,00000300,0000000F*10
$PIXSE,STATUS,00000000,00010000*6E
$PIXSE,HT_STS,FFFD5551*46
$GPGGA,094339.91,4154.16691999,N,01229.78196000,E,4,03,0.000,0.000,M,,M,,*75
$GPGST,094339.91,0.000,50.000,50.000,0.000,0.000,0.000,0.000*5B
$GPVTG,45.066,T,45.066,M,551.624,N,1021.609,K,D*1A
$GPGLL,4154.16691999,N,01229.78196000,E,094339.91,A,D*6D
$GPGGA,094339.92,4154.16691999,N,01229.78196000,E,4,03,0.000,0.000,M,,M,,*76
$GPGST,094339.92,0.000,50.000,50.000,0.000,0.000,0.000,0.000*58
$GPVTG,45.082,T,45.082,M,552.038,N,1022.374,K,D*1E
$GPGLL,4154.16691999,N,01229.78196000,E,094339.92,A,D*6E
$GPGGA,094339.93,4154.16691999,N,01229.78196000,E,4,03,0.000,0.000,M,,M,,*77
$GPGST,094339.93,0.000,50.000,50.000,0.000,0.000,0.000,0.000*59
$GPVTG,45.098,T,45.098,M,552.443,N,1023.125,K,D*11
$GPGLL,4154.16691999,N,01229.78196000,E,094339.93,A,D*6F
$GPGGA,094339.94,4154.16691999,N,01229.78196000,E,4,03,0.000,0.000,M,,M,,*70
$GPGST,094339.94,0.000,50.000,50.000,0.000,0.000,0.000,0.000*5E
$GPVTG,45.114,T,45.114,M,552.840,N,1023.860,K,D*16
$GPGLL,4154.16691999,N,01229.78196000,E,094339.94,A,D*68
$HEHDT,45.12,T*2D
$HEROT,5999.99,A*27
$GPGGA,094339.95,4154.16691999,N,01229.78196000,E,4,03,0.000,0.000,M,,M,,*71
$GPGST,094339.95,0.000,50.000,50.000,0.000,0.000,0.000,0.000*5F
$GPVTG,45.129,T,45.129,M,553.223,N,1024.569,K,D*1B
$GPGLL,4154.16691999,N,01229.78196000,E,094339.95,A,D*69
$AIPOV,094339.9525,45.129,45.129,-45.129,99.999,-99.999,-99.999,0.00,0.00,0.00,41.90278199,012.49636600,0.000,202.481,200.000,-200.000,202.481,-200.000,-200.000,45.129,00000001*51
$HEHDT,45.12,T*2D
$HETHS,45.12,S*3D
$PIXSE,ATITUD,45.129,45.129*62
$PIXSE,POSITI,41.90278199,12.49636600,0.000*6A
$PIXSE,SPEED_,200.000,202.481,200.000*6C
$PIXSE,UTMWGS,T,33,292332.434,4642013.583,0.000*12
$PIXSE,HEAVE_,-5.000,-5.000,-5.000*51
$PIXSE,TIME__,094339.952571*65
$PIXSE,STDHRP,0.009,0.019,0.050*74
$PIXSE,STDPOS,0.00,0.00,0.00*46
$PIXSE,STDSPD,0.000,0.000,0.000*7D
$PIXSE,ALGSTS,00000300,0000000F*10
$PIXSE,STATUS,00000000,00010000*6E
$PIXSE,HT_STS,FFFD5551*46
$GPGGA,094339.96,4154.16691999,N,01229.78196000,E,4,03,0.000,0.000,M,,M,,*72
$GPGST,094339.96,0.000,50.000,50.000,0.000,0.000,0.000,0.000*5C
$GPVTG,45.145,T,45.145,M,553.593,N,1025.254,K,D*1F
$GPGLL,4154.16691999,N,01229.78196000,E,094339.96,A,D*6A
$GPGGA,094339.97,4154.16691999,N,01229.78196000,E,4,03,0.000,0.000,M,,M,,*73
$GPGST,094339.97,0.000,50.000,50.000,0.000,0.000,0.000,0.000*5D
$GPVTG,45.161,T,45.161,M,553.948,N,1025.913,K,D*1D
$GPGLL,4154.16691999,N,01229.78196000,E,094339.97,A,D*6B
$GPGGA,094339.98,4154.16691999,N,01229.78196000,E,4,03,0.000,0.000,M,,M,,*7C
$GPGST,094339.98,0.000,50.000,50.000,0.000,0.000,0.000,0.000*52
$GPVTG,45.176,T,45.176,M,554.288,N,1026.541,K,D*15
$GPGLL,4154.16691999,N,01229.78196000,E,094339.98,A,D*64
$GPGGA,094339.99,4154.16691999,N,01229.78196000,E,4,03,0.000,0.000,M,,M,,*7D
$GPGST,094339.99,0.000,50.000,50.000,0.000,0.000,0.000,0.000*53
$GPVTG,45.192,T,45.192,M,554.610,N,1027.138,K,D*1B
$GPGLL,4154.16691999,N,01229.78196000,E,094339.99,A,D*65
$HEHDT,45.20,T*2C
$HEROT,5999.99,A*27
$GPGGA,094340.00,4154.16691999,N,01229.78196000,E,4,03,0.000,0.000,M,,M,,*73
$GPGST,094340.00,0.000,50.000,50.000,0.000,0.000,0.000,0.000*5D
$GPVTG,45.208,T,45.208,M,554.914,N,1027.702,K,D*1F
$GPGLL,4154.16691999,N,01229.78196000,E,094340.00,A,D*6B
$AIPOV,094340.0025,45.208,45.208,-45.208,99.999,-99.999,-99.999,0.00,0.00,0.00,41.90278199,012.49636600,0.000,203.702,200.000,-200.000,203.702,-200.000,-200.000,45.208,00000001*53
$HEHDT,45.20,T*2C
$HETHS,45.20,S*3C
$PIXSE,ATITUD,45.208,45.208*62
$PIXSE,POSITI,41.90278199,12.49636600,0.000*6A
$PIXSE,SPEED_,200.000,203.702,200.000*65
$PIXSE,UTMWGS,T,33,292332.434,4642013.583,0.000*12
$PIXSE,HEAVE_,-5.000,-5.000,-5.000*51
$PIXSE,TIME__,094340.002571*67
$PIXSE,STDHRP,0.009,0.019,0.050*74
$PIXSE,STDPOS,0.00,0.00,0.00*46
$PIXSE,STDSPD,0.000,0.000,0.000*7D
$PIXSE,ALGSTS,00000300,0000000F*10
$PIXSE,STATUS,00000000,00010000*6E
$PIXSE,HT_STS,FFFD5551*46
$GPGGA,094340.01,4154.16691999,N,01229.78196000,E,4,03,0.000,0.000,M,,M,,*72
$GPGST,094340.01,0.000,50.000,50.000,0.000,0.000,0.000,0.000*5C
$GPVTG,45.224,T,45.224,M,555.195,N,1028.223,K,D*16
$GPGLL,4154.16691999,N,01229.78196000,E,094340.01,A,D*6A
$GPGGA,094340.02,4154.16691999,N,01229.78196000,E,4,03,0.000,0.000,M,,M,,*71
$GPGST,094340.02,0.000,50.000,50.000,0.000,0.000,0.000,0.000*5F
$GPVTG,45.239,T,45.239,M,555.456,N,1028.705,K,D*1D
$GPGLL,4154.16691999,N,01229.78196000,E,094340.02,A,D*69
$GPGGA,094340.03,4154.16691999,N,01229.78196000,E,4,03,0.000,0.000,M,,M,,*70
$GPGST,094340.03,0.000,50.000,50.000,0.000,0.000,0.000,0.000*5E
$GPVTG,45.255,T,45.255,M,555.696,N,1029.149,K,D*1C
$GPGLL,4154.16691999,N,01229.78196000,E,094340.03,A,D*68
$GPGGA,094340.04,4154.16691999,N,01229.78196000,E,4,03,0.000,0.000,M,,M,,*77
$GPGST,094340.04,0.000,50.000,50.000,0.000,0.000,0.000,0.000*59
$GPVTG,45.271,T,45.271,M,555.912,N,1029.549,K,D*1B
$GPGLL,4154.16691999,N,01229.78196000,E,094340.04,A,D*6F
$HEHDT,45.27,T*2B
$HEROT,5999.99,A*27
$GPGGA,094340.05,4154.16691999,N,01229.78196000,E,4,03,0.000,0.000,M,,M,,*76
$GPGST,094340.05,0.000,50.000,50.000,0.000,0.000,0.000,0.000*58
$GPVTG,45.286,T,45.286,M,556.104,N,1029.904,K,D*12
$GPGLL,4154.16691999,N,01229.78196000,E,094340.05,A,D*6E
$AIPOV,094340.0525,45.286,45.286,-45.286,99.999,-99.999,-99.999,0.00,0.00,0.00,41.90278199,012.49636600,0.000,204.559,200.000,-200.000,204.559,-200.000,-200.000,45.286,00000001*56
$HEHDT,45.28,T*24
$HETHS,45.28,S*34
$PIXSE,ATITUD,45.286,45.286*62
$PIXSE,POSITI,41.90278199,12.49636600,0.000*6A
$PIXSE,SPEED_,200.000,204.559,200.000*6E
$PIXSE,UTMWGS,T,33,292332.434,4642013.583,0.000*12
$PIXSE,HEAVE_,-5.000,-5.000,-5.000*51
$PIXSE,TIME__,094340.052570*63
$PIXSE,STDHRP,0.009,0.019,0.050*74
$PIXSE,STDPOS,0.00,0.00,0.00*46
$PIXSE,STDSPD,0.000,0.000,0.000*7D
$PIXSE,ALGSTS,00000300,0000000F*10
$PIXSE,STATUS,00000000,00010000*6E
$PIXSE,HT_STS,FFFD5551*46
$GPGGA,094340.06,4154.16691999,N,01229.78196000,E,4,03,0.000,0.000,M,,M,,*75
$GPGST,094340.06,0.000,50.000,50.000,0.000,0.000,0.000,0.000*5B
$GPVTG,45.302,T,45.302,M,556.270,N,1030.212,K,D*16
$GPGLL,4154.16691999,N,01229.78196000,E,094340.06,A,D*6D
$GPGGA,094340.07,4154.16691999,N,01229.78196000,E,4,03,0.000,0.000,M,,M,,*74
$GPGST,094340.07,0.000,50.000,50.000,0.000,0.000,0.000,0.000*5A
$GPVTG,45.318,T,45.318,M,556.411,N,1030.474,K,D*11
$GPGLL,4154.16691999,N,01229.78196000,E,094340.07,A,D*6C
$GPGGA,094340.08,4154.16691999,N,01229.78196000,E,4,03,0.000,0.000,M,,M,,*7B
$GPGST,094340.08,0.000,50.000,50.000,0.000,0.000,0.000,0.000*55
$GPVTG,45.333,T,45.333,M,556.526,N,1030.687,K,D*1A
$GPGLL,4154.16691999,N,01229.78196000,E,094340.08,A,D*63
$GPGGA,094340.09,4154.16691999,N,01229.78196000,E,4,03,0.000,0.000,M,,M,,*7A
$GPGST,094340.09,0.000,50.000,50.000,0.000,0.000,0.000,0.000*54
$GPVTG,45.349,T,45.349,M,556.614,N,1030.850,K,D*1C
$GPGLL,4154.16691999,N,01229.78196000,E,094340.09,A,D*62
$HEHDT,45.35,T*28
$HEROT,5999.99,A*27
$GPGGA,094340.10,4154.16691999,N,01229.78196000,E,4,03,0.000,0.000,M,,M,,*72
$GPGST,094340.10,0.000,50.000,50.000,0.000,0.000,0.000,0.000*5C
$GPVTG,45.365,T,45.365,M,556.675,N,1030.963,K,D*1A
$GPGLL,4154.16691999,N,01229.78196000,E,094340.10,A,D*6A
$AIPOV,094340.1025,45.365,45.365,-45.365,99.999,-99.999,-99.999,0.00,0.00,0.00,41.90278199,012.49636600,0.000,204.970,200.000,-200.000,204.970,-200.000,-200.000,45.365,00000001*52
$HEHDT,45.36,T*2B
$HETHS,45.36,S*3B
$PIXSE,ATITUD,45.365,45.365*62
$PIXSE,POSITI,41.90278199,12.49636600,0.000*6A
$PIXSE,SPEED_,200.000,204.970,200.000*69
$PIXSE,UTMWGS,T,33,292332.434,4642013.583,0.000*12
$PIXSE,HEAVE_,-5.000,-5.000,-5.000*51
$PIXSE,TIME__,094340.102573*64
$PIXSE,STDHRP,0.009,0.019,0.050*74
$PIXSE,STDPOS,0.00,0.00,0.00*46
$PIXSE,STDSPD,0.000,0.000,0.000*7D
$PIXSE,ALGSTS,00000300,0000000F*10
$PIXSE,STATUS,00000000,00010000*6E
$PIXSE,HT_STS,FFFD5551*46
$GPGGA,094340.11,4154.16691999,N,01229.78196000,E,4,03,0.000,0.000,M,,M,,*73
$GPGST,094340.11,0.000,50.000,50.000,0.000,0.000,0.000,0.000*5D
$GPVTG,45.380,T,45.380,M,556.709,N,1031.026,K,D*19
$GPGLL,4154.16691999,N,01229.78196000,E,094340.11,A,D*6B
$GPGGA,094340.12,4154.16691999,N,01229.78196000,E,4,03,0.000,0.000,M,,M,,*70
$GPGST,094340.12,0.000,50.000,50.000,0.000,0.000,0.000,0.000*5E
$GPVTG,45.396,T,45.396,M,556.716,N,1031.038,K,D*18
$GPGLL,4154.16691999,N,01229.78196000,E,094340.12,A,D*68
$GPGGA,094340.13,4154.16691999,N,01229.78196000,E,4,03,0.000,0.000,M,,M,,*71
$GPGST,094340.13,0.000,50.000,50.000,0.000,0.000,0.000,0.000*5F
$GPVTG,45.412,T,45.412,M,556.695,N,1030.999,K,D*11
$GPGLL,4154.16691999,N,01229.78196000,E,094340.13,A,D*69
$GPGGA,094340.14,4154.16691999,N,01229.78196000,E,4,03,0.000,0.000,M,,M,,*76
$GPGST,094340.14,0.000,50.000,50.000,0.000,0.000,0.000,0.000*58
$GPVTG,45.427,T,45.427,M,556.646,N,1030.909,K,D*16
$GPGLL,4154.16691999,N,01229.78196000,E,094340.14,A,D*6E
$HEHDT,45.43,T*29
$HEROT,5999.99,A*27
$GPGGA,094340.15,4154.16691999,N,01229.78196000,E,4,03,0.000,0.000,M,,M,,*77
$GPGST,094340.15,0.000,50.000,50.000,0.000,0.000,0.000,0.000*59
$GPVTG,45.443,T,45.443,M,556.571,N,1030.769,K,D*19
$GPGLL,4154.16691999,N,01229.78196000,E,094340.15,A,D*6F
$AIPOV,094340.1525,45.443,45.443,-45.443,99.999,-99.999,-99.999,0.00,0.00,0.00,41.90278199,012.49636600,0.000,204.895,200.000,-200.000,204.895,-200.000,-200.000,45.443,00000001*57
$HEHDT,45.44,T*2E
$HETHS,45.44,S*3E
$PIXSE,ATITUD,45.443,45.443*62
$PIXSE,POSITI,41.90278199,12.49636600,0.000*6A
$PIXSE,SPEED_,200.000,204.895,200.000*63
$PIXSE,UTMWGS,T,33,292332.434,4642013.583,0.000*12
$PIXSE,HEAVE_,-5.000,-5.000,-5.000*51
$PIXSE,TIME__,094340.152572*60
$PIXSE,STDHRP,0.009,0.019,0.050*74
$PIXSE,STDPOS,0.00,0.00,0.00*46
$PIXSE,STDSPD,0.000,0.000,0.000*7D
$PIXSE,ALGSTS,00000300,0000000F*10
$PIXSE,STATUS,00000000,00010000*6E
$PIXSE,HT_STS,FFFD5551*46
$GPGGA,094340.16,4154.16691999,N,01229.78196000,E,4,03,0.000,0.000,M,,M,,*74
$GPGST,094340.16,0.000,50.000,50.000,0.000,0.000,0.000,0.000*5A
$GPVTG,45.459,T,45.459,M,556.469,N,1030.580,K,D*14
$GPGLL,4154.16691999,N,01229.78196000,E,094340.16,A,D*6C
$GPGGA,094340.17,4154.16691999,N,01229.78196000,E,4,03,0.000,0.000,M,,M,,*75
$GPGST,094340.17,0.000,50.000,50.000,0.000,0.000,0.000,0.000*5B
$GPVTG,45.474,T,45.474,M,556.340,N,1030.342,K,D*10
$GPGLL,4154.16691999,N,01229.78196000,E,094340.17,A,D*6D
$GPGGA,094340.18,4154.16691999,N,01229.78196000,E,4,03,0.000,0.000,M,,M,,*7A
$GPGST,094340.18,0.000,50.000,50.000,0.000,0.000,0.000,0.000*54
$GPVTG,45.490,T,45.490,M,556.185,N,1030.055,K,D*1E
$GPGLL,4154.16691999,N,01229.78196000,E,094340.18,A,D*62
$GPGGA,094340.19,4154.16691999,N,01229.78196000,E,4,03,0.000,0.000,M,,M,,*7B
$GPGST,094340.19,0.000,50.000,50.000,0.000,0.000,0.000,0.000*55
$GPVTG,45.505,T,45.505,M,556.005,N,1029.721,K,D*1B
$GPGLL,4154.16691999,N,01229.78196000,E,094340.19,A,D*63
$HEHDT,45.51,T*2A
$HEROT,5999.99,A*27
$GPGGA,094340.20,4154.16691999,N,01229.78196000,E,4,03,0.000,0.000,M,,M,,*71
$GPGST,094340.20,0.000,50.000,50.000,0.000,0.000,0.000,0.000*5F
$GPVTG,45.521,T,45.521,M,555.800,N,1029.342,K,D*14
$GPGLL,4154.16691999,N,01229.78196000,E,094340.20,A,D*69
$AIPOV,094340.2025,45.521,45.521,-45.521,99.999,-99.999,-99.999,0.00,0.00,0.00,41.90278199,012.49636600,0.000,204.340,200.000,-200.000,204.340,-200.000,-200.000,45.521,00000001*51
$HEHDT,45.52,T*29
$HETHS,45.52,S*39
$PIXSE,ATITUD,45.521,45.521*62
$PIXSE,POSITI,41.90278199,12.49636600,0.000*6A
$PIXSE,SPEED_,200.000,204.340,200.000*60
$PIXSE,UTMWGS,T,33,292332.434,4642013.583,0.000*12
$PIXSE,HEAVE_,-5.000,-5.000,-5.000*51
$PIXSE,TIME__,094340.202571*65
$PIXSE,STDHRP,0.009,0.019,0.050*74
$PIXSE,STDPOS,0.00,0.00,0.00*46
$PIXSE,STDSPD,0.000,0.000,0.000*7D
$PIXSE,ALGSTS,00000300,0000000F*10
$PIXSE,STATUS,00000000,00010000*6E
$PIXSE,HT_STS,FFFD5551*46
$GPGGA,094340.21,4154.16691999,N,01229.78196000,E,4,03,0.000,0.000,M,,M,,*70
$GPGST,094340.21,0.000,50.000,50.000,0.000,0.000,0.000,0.000*5E
$GPVTG,45.537,T,45.537,M,555.572,N,1028.920,K,D*13
$GPGLL,4154.16691999,N,01229.78196000,E,094340.21,A,D*68
$GPGGA,094340.22,4154.16691999,N,01229.78196000,E,4,03,0.000,0.000,M,,M,,*73
$GPGST,094340.22,0.000,50.000,50.000,0.000,0.000,0.000,0.000*5D
$GPVTG,45.552,T,45.552,M,555.321,N,1028.456,K,D*1F
$GPGLL,4154.16691999,N,01229.78196000,E,094340.22,A,D*6B
$GPGGA,094340.23,4154.16691999,N,01229.78196000,E,4,03,0.000,0.000,M,,M,,*72
$GPGST,094340.23,0.000,50.000,50.000,0.000,0.000,0.000,0.000*5C
$GPVTG,45.568,T,45.568,M,555.048,N,1027.950,K,D*17
$GPGLL,4154.16691999,N,01229.78196000,E,094340.23,A,D*6A
$GPGGA,094340.24,4154.16691999,N,01229.78196000,E,4,03,0.000,0.000,M,,M,,*75
$GPGST,094340.24,0.000,50.000,50.000,0.000,0.000,0.000,0.000*5B
$GPVTG,45.584,T,45.584,M,554.754,N,1027.405,K,D*11
$GPGLL,4154.16691999,N,01229.78196000,E,094340.24,A,D*6D
$HEHDT,45.59,T*22
$HEROT,5999.99,A*27
$GPGGA,094340.25,4154.16691999,N,01229.78196000,E,4,03,0.000,0.000,M,,M,,*74
$GPGST,094340.25,0.000,50.000,50.000,0.000,0.000,0.000,0.000*5A
$GPVTG,45.599,T,45.599,M,554.442,N,1026.826,K,D*19
$GPGLL,4154.16691999,N,01229.78196000,E,094340.25,A,D*6C
$AIPOV,094340.2525,45.599,45.599,-45.599,99.999,-99.999,-99.999,0.00,0.00,0.00,41.90278199,012.49636600,0.000,203.361,200.000,-200.000,203.361,-200.000,-200.000,45.599,00000001*54
$HEHDT,45.59,T*22
$HETHS,45.59,S*32
$PIXSE,ATITUD,45.599,45.599*62
$PIXSE,POSITI,41.90278199,12.49636600,0.000*6A
$PIXSE,SPEED_,200.000,203.361,200.000*64
$PIXSE,UTMWGS,T,33,292332.434,4642013.583,0.000*12
$PIXSE,HEAVE_,-5.000,-5.000,-5.000*51
$PIXSE,TIME__,094340.252571*60
$PIXSE,STDHRP,0.009,0.019,0.050*74
$PIXSE,STDPOS,0.00,0.00,0.00*46
$PIXSE,STDSPD,0.000,0.000,0.000*7D
$PIXSE,ALGSTS,00000300,0000000F*10
$PIXSE,STATUS,00000000,00010000*6E
$PIXSE,HT_STS,FFFD5551*46
$GPGGA,094340.26,4154.16691999,N,01229.78196000,E,4,03,0.000,0.000,M,,M,,*77
$GPGST,094340.26,0.000,50.000,50.000,0.000,0.000,0.000,0.000*59
$GPVTG,45.615,T,45.615,M,554.111,N,1026.214,K,D*11
$GPGLL,4154.16691999,N,01229.78196000,E,094340.26,A,D*6F
$GPGGA,094340.27,4154.16691999,N,01229.78196000,E,4,03,0.000,0.000,M,,M,,*76
$GPGST,094340.27,0.000,50.000,50.000,0.000,0.000,0.000,0.000*58
$GPVTG,45.630,T,45.630,M,553.763,N,1025.569,K,D*1B
$GPGLL,4154.16691999,N,01229.78196000,E,094340.27,A,D*6E
$GPGGA,094340.28,4154.16691999,N,01229.78196000,E,4,03,0.000,0.000,M,,M,,*79
$GPGST,094340.28,0.000,50.000,50.000,0.000,0.000,0.000,0.000*57
$GPVTG,45.646,T,45.646,M,553.400,N,1024.896,K,D*11
$GPGLL,4154.16691999,N,01229.78196000,E,094340.28,A,D*61
$GPGGA,094340.29,4154.16691999,N,01229.78196000,E,4,03,0.000,0.000,M,,M,,*78
$GPGST,094340.29,0.000,50.000,50.000,0.000,0.000,0.000,0.000*56
$GPVTG,45.661,T,45.661,M,553.022,N,1024.197,K,D*1D
$GPGLL,4154.16691999,N,01229.78196000,E,094340.29,A,D*60
$HEHDT,45.66,T*2E
$HEROT,5999.99,A*27
$GPGGA,094340.30,4154.16691999,N,01229.78196000,E,4,03,0.000,0.000,M,,M,,*70
$GPGST,094340.30,0.000,50.000,50.000,0.000,0.000,0.000,0.000*5E
$GPVTG,45.677,T,45.677,M,552.629,N,1023.468,K,D*13
$GPGLL,4154.16691999,N,01229.78196000,E,094340.30,A,D*68
$AIPOV,094340.3025,45.677,45.677,-45.677,99.999,-99.999,-99.999,0.00,0.00,0.00,41.90278199,012.49636600,0.000,202.051,200.000,-200.000,202.051,-200.000,-200.000,45.677,00000001*50
$HEHDT,45.67,T*2F
$HETHS,45.67,S*3F
$PIXSE,ATITUD,45.677,45.677*62
$PIXSE,POSITI,41.90278199,12.49636600,0.000*6A
$PIXSE,SPEED_,200.000,202.051,200.000*65
$PIXSE,UTMWGS,T,33,292332.434,4642013.583,0.000*12
$PIXSE,HEAVE_,-5.000,-5.000,-5.000*51
$PIXSE,TIME__,094340.302570*65
$PIXSE,STDHRP,0.009,0.019,0.050*74
$PIXSE,STDPOS,0.00,0.00,0.00*46
$PIXSE,STDSPD,0.000,0.000,0.000*7D
$PIXSE,ALGSTS,00000300,0000000F*10
$PIXSE,STATUS,00000000,00010000*6E
$PIXSE,HT_STS,FFFD5551*46
$GPGGA,094340.31,4154.16691999,N,01229.78196000,E,4,03,0.000,0.000,M,,M,,*71
$GPGST,094340.31,0.000,50.000,50.000,0.000,0.000,0.000,0.000*5F
$GPVTG,45.693,T,45.693,M,552.231,N,1022.731,K,D*10
$GPGLL,4154.16691999,N,01229.78196000,E,094340.31,A,D*69
$GPGGA,094340.32,4154.16691999,N,01229.78196000,E,4,03,0.000,0.000,M,,M,,*72
$GPGST,094340.32,0.000,50.000,50.000,0.000,0.000,0.000,0.000*5C
$GPVTG,45.708,T,45.708,M,551.821,N,1021.972,K,D*12
$GPGLL,4154.16691999,N,01229.78196000,E,094340.32,A,D*6A
$GPGGA,094340.33,4154.16691999,N,01229.78196000,E,4,03,0.000,0.000,M,,M,,*73
$GPGST,094340.33,0.000,50.000,50.000,0.000,0.000,0.000,0.000*5D
$GPVTG,45.724,T,45.724,M,551.403,N,1021.198,K,D*12
$GPGLL,4154.16691999,N,01229.78196000,E,094340.33,A,D*6B
$GPGGA,094340.34,4154.16691999,N,01229.78196000,E,4,03,0.000,0.000,M,,M,,*74
$GPGST,094340.34,0.000,50.000,50.000,0.000,0.000,0.000,0.000*5A
$GPVTG,45.739,T,45.739,M,550.978,N,1020.412,K,D*14
$GPGLL,4154.16691999,N,01229.78196000,E,094340.34,A,D*6C
$HEHDT,45.74,T*2D
$HEROT,5999.99,A*27
$GPGGA,094340.35,4154.16691999,N,01229.78196000,E,4,03,0.000,0.000,M,,M,,*75
$GPGST,094340.35,0.000,50.000,50.000,0.000,0.000,0.000,0.000*5B
$GPVTG,45.755,T,45.755,M,550.547,N,1019.614,K,D*1A
$GPGLL,4154.16691999,N,01229.78196000,E,094340.35,A,D*6D
$AIPOV,094340.3525,45.755,45.755,-45.755,99.999,-99.999,-99.999,0.00,0.00,0.00,41.90278199,012.49636600,0.000,200.541,200.000,-200.000,200.541,-200.000,-200.000,45.755,00000001*55
$HEHDT,45.75,T*2C
$HETHS,45.75,S*3C
$PIXSE,ATITUD,45.755,45.755*62
$PIXSE,POSITI,41.90278199,12.49636600,0.000*6A
$PIXSE,SPEED_,200.000,200.541,200.000*63
$PIXSE,UTMWGS,T,33,292332.434,4642013.583,0.000*12
$PIXSE,HEAVE_,-5.000,-5.000,-5.000*51
$PIXSE,TIME__,094340.352573*63
$PIXSE,STDHRP,0.009,0.019,0.050*74
$PIXSE,STDPOS,0.00,0.00,0.00*46
$PIXSE,STDSPD,0.000,0.000,0.000*7D
$PIXSE,ALGSTS,00000300,0000000F*10
$PIXSE,STATUS,00000000,00010000*6E
$PIXSE,HT_STS,FFFD5551*46
$GPGGA,094340.36,4154.16691999,N,01229.78196000,E,4,03,0.000,0.000,M,,M,,*76
$GPGST,094340.36,0.000,50.000,50.000,0.000,0.000,0.000,0.000*58
$GPVTG,45.770,T,45.770,M,550.120,N,1018.822,K,D*15
$GPGLL,4154.16691999,N,01229.78196000,E,094340.36,A,D*6E
$GPGGA,094340.37,4154.16691999,N,01229.78196000,E,4,03,0.000,0.000,M,,M,,*77
$GPGST,094340.37,0.000,50.000,50.000,0.000,0.000,0.000,0.000*59
$GPVTG,45.786,T,45.786,M,549.688,N,1018.023,K,D*11
$GPGLL,4154.16691999,N,01229.78196000,E,094340.37,A,D*6F
$GPGGA,094340.38,4154.16691999,N,01229.78196000,E,4,03,0.000,0.000,M,,M,,*78
$GPGST,094340.38,0.000,50.000,50.000,0.000,0.000,0.000,0.000*56
$GPVTG,45.801,T,45.801,M,549.257,N,1017.224,K,D*1D
$GPGLL,4154.16691999,N,01229.78196000,E,094340.38,A,D*60
$GPGGA,094340.39,4154.16691999,N,01229.78196000,E,4,03,0.000,0.000,M,,M,,*79
$GPGST,094340.39,0.000,50.000,50.000,0.000,0.000,0.000,0.000*57
$GPVTG,45.817,T,45.817,M,548.828,N,1016.429,K,D*14
$GPGLL,4154.16691999,N,01229.78196000,E,094340.39,A,D*61
$HEHDT,45.82,T*24
$HEROT,5999.99,A*27
$GPGGA,094340.40,4154.16691999,N,01229.78196000,E,4,03,0.000,0.000,M,,M,,*77
$GPGST,094340.40,0.000,50.000,50.000,0.000,0.000,0.000,0.000*59
$GPVTG,45.832,T,45.832,M,548.403,N,1015.643,K,D*1C
$GPGLL,4154.16691999,N,01229.78196000,E,094340.40,A,D*6F
$AIPOV,094340.4025,45.832,45.832,-45.832,99.999,-99.999,-99.999,0.00,0.00,0.00,41.90278199,012.49636600,0.000,198.981,200.000,-200.000,198.981,-200.000,-200.000,45.832,00000001*57
$HEHDT,45.83,T*25
$HETHS,45.83,S*35
$PIXSE,ATITUD,45.832,45.832*62
$PIXSE,POSITI,41.90278199,12.49636600,0.000*6A
$PIXSE,SPEED_,200.000,198.981,200.000*61
$PIXSE,UTMWGS,T,33,292332.434,4642013.583,0.000*12
$PIXSE,HEAVE_,-5.000,-5.000,-5.000*51
$PIXSE,TIME__,094340.402572*60
$PIXSE,STDHRP,0.009,0.019,0.050*74
$PIXSE,STDPOS,0.00,0.00,0.00*46
$PIXSE,STDSPD,0.000,0.000,0.000*7D
$PIXSE,ALGSTS,00000300,0000000F*10
$PIXSE,STATUS,00000000,00010000*6E
$PIXSE,HT_STS,FFFD5551*46
$GPGGA,094340.41,4154.16691999,N,01229.78196000,E,4,03,0.000,0.000,M,,M,,*76
$GPGST,094340.41,0.000,50.000,50.000,0.000,0.000,0.000,0.000*58
$GPVTG,45.848,T,45.848,M,547.986,N,1014.870,K,D*1C
$GPGLL,4154.16691999,N,01229.78196000,E,094340.41,A,D*6E
$GPGGA,094340.42,4154.16691999,N,01229.78196000,E,4,03,0.000,0.000,M,,M,,*75
$GPGST,094340.42,0.000,50.000,50.000,0.000,0.000,0.000,0.000*5B
$GPVTG,45.863,T,45.863,M,547.575,N,1014.109,K,D*1B
$GPGLL,4154.16691999,N,01229.78196000,E,094340.42,A,D*6D
$GPGGA,094340.43,4154.16691999,N,01229.78196000,E,4,03,0.000,0.000,M,,M,,*74
$GPGST,094340.43,0.000,50.000,50.000,0.000,0.000,0.000,0.000*5A
$GPVTG,45.879,T,45.879,M,547.173,N,1013.365,K,D*16
$GPGLL,4154.16691999,N,01229.78196000,E,094340.43,A,D*6C
$GPGGA,094340.44,4154.16691999,N,01229.78196000,E,4,03,0.000,0.000,M,,M,,*73
$GPGST,094340.44,0.000,50.000,50.000,0.000,0.000,0.000,0.000*5D
$GPVTG,45.894,T,45.894,M,546.780,N,1012.638,K,D*11
$GPGLL,4154.16691999,N,01229.78196000,E,094340.44,A,D*6B
$HEHDT,45.90,T*27
$HEROT,5999.99,A*27
$GPGGA,094340.45,4154.16691999,N,01229.78196000,E,4,03,0.000,0.000,M,,M,,*72
$GPGST,094340.45,0.000,50.000,50.000,0.000,0.000,0.000,0.000*5C
$GPVTG,45.910,T,45.910,M,546.401,N,1011.936,K,D*19
$GPGLL,4154.16691999,N,01229.78196000,E,094340.45,A,D*6A
$AIPOV,094340.4525,45.910,45.910,-45.910,99.999,-99.999,-99.999,0.00,0.00,0.00,41.90278199,012.49636600,0.000,197.518,200.000,-200.000,197.518,-200.000,-200.000,45.910,00000001*52
$HEHDT,45.91,T*26
$HETHS,45.91,S*36
$PIXSE,ATITUD,45.910,45.910*62
$PIXSE,POSITI,41.90278199,12.49636600,0.000*6A
$PIXSE,SPEED_,200.000,197.518,200.000*62
$PIXSE,UTMWGS,T,33,292332.434,4642013.583,0.000*12
$PIXSE,HEAVE_,-5.000,-5.000,-5.000*51
$PIXSE,TIME__,094340.452571*66
$PIXSE,STDHRP,0.009,0.019,0.050*74
$PIXSE,STDPOS,0.00,0.00,0.00*46
$PIXSE,STDSPD,0.000,0.000,0.000*7D
$PIXSE,ALGSTS,00000300,0000000F*10
$PIXSE,STATUS,00000000,00010000*6E
$PIXSE,HT_STS,FFFD5551*46
$GPGGA,094340.46,4154.16691999,N,01229.78196000,E,4,03,0.000,0.000,M,,M,,*71
$GPGST,094340.46,0.000,50.000,50.000,0.000,0.000,0.000,0.000*5F
$GPVTG,45.925,T,45.925,M,546.037,N,1011.261,K,D*11
$GPGLL,4154.16691999,N,01229.78196000,E,094340.46,A,D*69
$GPGGA,094340.47,4154.16691999,N,01229.78196000,E,4,03,0.000,0.000,M,,M,,*70
$GPGST,094340.47,0.000,50.000,50.000,0.000,0.000,0.000,0.000*5E
$GPVTG,45.940,T,45.940,M,545.686,N,1010.611,K,D*1C
$GPGLL,4154.16691999,N,01229.78196000,E,094340.47,A,D*68
$GPGGA,094340.48,4154.16691999,N,01229.78196000,E,4,03,0.000,0.000,M,,M,,*7F
$GPGST,094340.48,0.000,50.000,50.000,0.000,0.000,0.000,0.000*51
$GPVTG,45.956,T,45.956,M,545.352,N,1009.993,K,D*1D
$GPGLL,4154.16691999,N,01229.78196000,E,094340.48,A,D*67
$GPGGA,094340.49,4154.16691999,N,01229.78196000,E,4,03,0.000,0.000,M,,M,,*7E
$GPGST,094340.49,0.000,50.000,50.000,0.000,0.000,0.000,0.000*50
$GPVTG,45.971,T,45.971,M,545.035,N,1009.406,K,D*1E
$GPGLL,4154.16691999,N,01229.78196000,E,094340.49,A,D*66
$HEHDT,45.97,T*20
$HEROT,5999.99,A*27
$GPGGA,094340.50,4154.16691999,N,01229.78196000,E,4,03,0.000,0.000,M,,M,,*76
$GPGST,094340.50,0.000,50.000,50.000,0.000,0.000,0.000,0.000*58
$GPVTG,45.987,T,45.987,M,544.738,N,1008.855,K,D*1E
$GPGLL,4154.16691999,N,01229.78196000,E,094340.50,A,D*6E
$AIPOV,094340.5025,45.987,45.987,-45.987,99.999,-99.999,-99.999,0.00,0.00,0.00,41.90278199,012.49636600,0.000,196.298,200.000,-200.000,196.298,-200.000,-200.000,45.987,00000001*56
$HEHDT,45.98,T*2F
$HETHS,45.98,S*3F
$PIXSE,ATITUD,45.987,45.987*62
$PIXSE,POSITI,41.90278199,12.49636600,0.000*6A
$PIXSE,SPEED_,200.000,196.298,200.000*6C
$PIXSE,UTMWGS,T,33,292332.434,4642013.583,0.000*12
$PIXSE,HEAVE_,-5.000,-5.000,-5.000*51
$PIXSE,TIME__,094340.502571*62
$PIXSE,STDHRP,0.009,0.019,0.050*74
$PIXSE,STDPOS,0.00,0.00,0.00*46
$PIXSE,STDSPD,0.000,0.000,0.000*7D
$PIXSE,ALGSTS,00000300,0000000F*10
$PIXSE,STATUS,00000000,00010000*6E
$PIXSE,HT_STS,FFFD5551*46
$GPGGA,094340.51,4154.16691999,N,01229.78196000,E,4,03,0.000,0.000,M,,M,,*77
$GPGST,094340.51,0.000,50.000,50.000,0.000,0.000,0.000,0.000*59
$GPVTG,46.002,T,46.002,M,544.461,N,1008.342,K,D*1C
$GPGLL,4154.16691999,N,01229.78196000,E,094340.51,A,D*6F
$GPGGA,094340.52,4154.16691999,N,01229.78196000,E,4,03,0.000,0.000,M,,M,,*74
$GPGST,094340.52,0.000,50.000,50.000,0.000,0.000,0.000,0.000*5A
$GPVTG,46.017,T,46.017,M,544.205,N,1007.868,K,D*14
$GPGLL,4154.16691999,N,01229.78196000,E,094340.52,A,D*6C
$GPGGA,094340.53,4154.16691999,N,01229.78196000,E,4,03,0.000,0.000,M,,M,,*75
$GPGST,094340.53,0.000,50.000,50.000,0.000,0.000,0.000,0.000*5B
$GPVTG,46.033,T,46.033,M,543.970,N,1007.434,K,D*1F
$GPGLL,4154.16691999,N,01229.78196000,E,094340.53,A,D*6D
$GPGGA,094340.54,4154.16691999,N,01229.78196000,E,4,03,0.000,0.000,M,,M,,*72
$GPGST,094340.54,0.000,50.000,50.000,0.000,0.000,0.000,0.000*5C
$GPVTG,46.048,T,46.048,M,543.758,N,1007.040,K,D*1C
$GPGLL,4154.16691999,N,01229.78196000,E,094340.54,A,D*6A
$HEHDT,46.05,T*28
$HEROT,5999.99,A*27
$GPGGA,094340.55,4154.16691999,N,01229.78196000,E,4,03,0.000,0.000,M,,M,,*73
$GPGST,094340.55,0.000,50.000,50.000,0.000,0.000,0.000,0.000*5D
$GPVTG,46.064,T,46.064,M,543.571,N,1006.695,K,D*1A
$GPGLL,4154.16691999,N,01229.78196000,E,094340.55,A,D*6B
$AIPOV,094340.5525,46.064,46.064,-46.064,99.999,-99.999,-99.999,0.00,0.00,0.00,41.90278199,012.49636600,0.000,195.440,200.000,-200.000,195.440,-200.000,-200.000,46.064,00000001*53
$HEHDT,46.06,T*2B
$HETHS,46.06,S*3B
$PIXSE,ATITUD,46.064,46.064*62
$PIXSE,POSITI,41.90278199,12.49636600,0.000*6A
$PIXSE,SPEED_,200.000,195.440,200.000*6C
$PIXSE,UTMWGS,T,33,292332.434,4642013.583,0.000*12
$PIXSE,HEAVE_,-5.000,-5.000,-5.000*51
$PIXSE,TIME__,094340.552574*62
$PIXSE,STDHRP,0.009,0.019,0.050*74
$PIXSE,STDPOS,0.00,0.00,0.00*46
$PIXSE,STDSPD,0.000,0.000,0.000*7D
$PIXSE,ALGSTS,00000300,0000000F*10
$PIXSE,STATUS,00000000,00010000*6E
$PIXSE,HT_STS,FFFD5551*46
$GPGGA,094340.56,4154.16691999,N,01229.78196000,E,4,03,0.000,0.000,M,,M,,*70
$GPGST,094340.56,0.000,50.000,50.000,0.000,0.000,0.000,0.000*5E
$GPVTG,46.079,T,46.079,M,543.409,N,1006.394,K,D*10
$GPGLL,4154.16691999,N,01229.78196000,E,094340.56,A,D*68
$GPGGA,094340.57,4154.16691999,N,01229.78196000,E,4,03,0.000,0.000,M,,M,,*71
$GPGST,094340.57,0.000,50.000,50.000,0.000,0.000,0.000,0.000*5F
$GPVTG,46.094,T,46.094,M,543.271,N,1006.138,K,D*1D
$GPGLL,4154.16691999,N,01229.78196000,E,094340.57,A,D*69
$GPGGA,094340.58,4154.16691999,N,01229.78196000,E,4,03,0.000,0.000,M,,M,,*7E
$GPGST,094340.58,0.000,50.000,50.000,0.000,0.000,0.000,0.000*50
$GPVTG,46.110,T,46.110,M,543.159,N,1005.931,K,D*16
$GPGLL,4154.16691999,N,01229.78196000,E,094340.58,A,D*66
$GPGGA,094340.59,4154.16691999,N,01229.78196000,E,4,03,0.000,0.000,M,,M,,*7F
$GPGST,094340.59,0.000,50.000,50.000,0.000,0.000,0.000,0.000*51
$GPVTG,46.125,T,46.125,M,543.073,N,1005.771,K,D*15
$GPGLL,4154.16691999,N,01229.78196000,E,094340.59,A,D*67
$HEHDT,46.13,T*2F
$HEROT,5999.99,A*27
$GPGGA,094340.60,4154.16691999,N,01229.78196000,E,4,03,0.000,0.000,M,,M,,*75
$GPGST,094340.60,0.000,50.000,50.000,0.000,0.000,0.000,0.000*5B
$GPVTG,46.140,T,46.140,M,543.013,N,1005.660,K,D*12
$GPGLL,4154.16691999,N,01229.78196000,E,094340.60,A,D*6D
$AIPOV,094340.6025,46.140,46.140,-46.140,99.999,-99.999,-99.999,0.00,0.00,0.00,41.90278199,012.49636600,0.000,195.029,200.000,-200.000,195.029,-200.000,-200.000,46.140,00000001*55
$HEHDT,46.14,T*28
$HETHS,46.14,S*38
$PIXSE,ATITUD,46.140,46.140*62
$PIXSE,POSITI,41.90278199,12.49636600,0.000*6A
$PIXSE,SPEED_,200.000,195.029,200.000*67
$PIXSE,UTMWGS,T,33,292332.434,4642013.583,0.000*12
$PIXSE,HEAVE_,-5.000,-5.000,-5.000*51
$PIXSE,TIME__,094340.602573*63
$PIXSE,STDHRP,0.009,0.019,0.050*74
$PIXSE,STDPOS,0.00,0.00,0.00*46
$PIXSE,STDSPD,0.000,0.000,0.000*7D
$PIXSE,ALGSTS,00000300,0000000F*10
$PIXSE,STATUS,00000000,00010000*6E
$PIXSE,HT_STS,FFFD5551*46
$GPGGA,094340.61,4154.16691999,N,01229.78196000,E,4,03,0.000,0.000,M,,M,,*74
$GPGST,094340.61,0.000,50.000,50.000,0.000,0.000,0.000,0.000*5A
$GPVTG,46.155,T,46.155,M,542.980,N,1005.599,K,D*15
$GPGLL,4154.16691999,N,01229.78196000,E,094340.61,A,D*6C
$GPGGA,094340.62,4154.16691999,N,01229.78196000,E,4,03,0.000,0.000,M,,M,,*77
$GPGST,094340.62,0.000,50.000,50.000,0.000,0.000,0.000,0.000*59
$GPVTG,46.171,T,46.171,M,542.974,N,1005.588,K,D*1E
$GPGLL,4154.16691999,N,01229.78196000,E,094340.62,A,D*6F
$GPGGA,094340.63,4154.16691999,N,01229.78196000,E,4,03,0.000,0.000,M,,M,,*76
$GPGST,094340.63,0.000,50.000,50.000,0.000,0.000,0.000,0.000*58
$GPVTG,46.186,T,46.186,M,542.994,N,1005.626,K,D*17
$GPGLL,4154.16691999,N,01229.78196000,E,094340.63,A,D*6E
$GPGGA,094340.64,4154.16691999,N,01229.78196000,E,4,03,0.000,0.000,M,,M,,*71
$GPGST,094340.64,0.000,50.000,50.000,0.000,0.000,0.000,0.000*5F
$GPVTG,46.201,T,46.201,M,543.042,N,1005.713,K,D*13
$GPGLL,4154.16691999,N,01229.78196000,E,094340.64,A,D*69
$HEHDT,46.20,T*2F
$HEROT,5999.99,A*27
$GPGGA,094340.65,4154.16691999,N,01229.78196000,E,4,03,0.000,0.000,M,,M,,*70
$GPGST,094340.65,0.000,50.000,50.000,0.000,0.000,0.000,0.000*5E
$GPVTG,46.217,T,46.217,M,543.115,N,1005.850,K,D*18
$GPGLL,4154.16691999,N,01229.78196000,E,094340.65,A,D*68
$AIPOV,094340.6525,46.217,46.217,-46.217,99.999,-99.999,-99.999,0.00,0.00,0.00,41.90278199,012.49636600,0.000,195.104,200.000,-200.000,195.104,-200.000,-200.000,46.217,00000001*50
$HEHDT,46.21,T*2E
$HETHS,46.21,S*3E
$PIXSE,ATITUD,46.217,46.217*62
$PIXSE,POSITI,41.90278199,12.49636600,0.000*6A
$PIXSE,SPEED_,200.000,195.104,200.000*69
$PIXSE,UTMWGS,T,33,292332.434,4642013.583,0.000*12
$PIXSE,HEAVE_,-5.000,-5.000,-5.000*51
$PIXSE,TIME__,094340.652572*67
$PIXSE,STDHRP,0.009,0.019,0.050*74
$PIXSE,STDPOS,0.00,0.00,0.00*46
$PIXSE,STDSPD,0.000,0.000,0.000*7D
$PIXSE,ALGSTS,00000300,0000000F*10
$PIXSE,STATUS,00000000,00010000*6E
$PIXSE,HT_STS,FFFD5551*46
$GPGGA,094340.66,4154.16691999,N,01229.78196000,E,4,03,0.000,0.000,M,,M,,*73
$GPGST,094340.66,0.000,50.000,50.000,0.000,0.000,0.000,0.000*5D
$GPVTG,46.232,T,46.232,M,543.215,N,1006.034,K,D*12
$GPGLL,4154.16691999,N,01229.78196000,E,094340.66,A,D*6B
$GPGGA,094340.67,4154.16691999,N,01229.78196000,E,4,03,0.000,0.000,M,,M,,*72
$GPGST,094340.67,0.000,50.000,50.000,0.000,0.000,0.000,0.000*5C
$GPVTG,46.247,T,46.247,M,543.341,N,1006.267,K,D*16
$GPGLL,4154.16691999,N,01229.78196000,E,094340.67,A,D*6A
$GPGGA,094340.68,4154.16691999,N,01229.78196000,E,4,03,0.000,0.000,M,,M,,*7D
$GPGST,094340.68,0.000,50.000,50.000,0.000,0.000,0.000,0.000*53
$GPVTG,46.262,T,46.262,M,543.492,N,1006.547,K,D*1A
$GPGLL,4154.16691999,N,01229.78196000,E,094340.68,A,D*65
$GPZDA,094340.69,,,,,*63
$GPGGA,094340.69,4154.16691999,N,01229.78196000,E,4,03,0.000,0.000,M,,M,,*7C
$GPGST,094340.69,0.000,50.000,50.000,0.000,0.000,0.000,0.000*52
$GPVTG,46.277,T,46.277,M,543.668,N,1006.874,K,D*10
$GPGLL,4154.16691999,N,01229.78196000,E,094340.69,A,D*64
$HEHDT,46.28,T*27
$HEROT,5999.99,A*27
$GPGGA,094340.70,4154.16691999,N,01229.78196000,E,4,03,0.000,0.000,M,,M,,*74
$GPGST,094340.70,0.000,50.000,50.000,0.000,0.000,0.000,0.000*5A
$GPVTG,46.293,T,46.293,M,543.869,N,1007.246,K,D*15
$GPGLL,4154.16691999,N,01229.78196000,E,094340.70,A,D*6C
$AIPOV,094340.7025,46.293,46.293,-46.293,99.999,-99.999,-99.999,0.00,0.00,0.00,41.90278199,012.49636600,0.000,195.659,200.000,-200.000,195.659,-200.000,-200.000,46.293,00000001*54
$HEHDT,46.29,T*26
$HETHS,46.29,S*36
$PIXSE,ATITUD,46.293,46.293*62
$PIXSE,POSITI,41.90278199,12.49636600,0.000*6A
$PIXSE,SPEED_,200.000,195.659,200.000*66
$PIXSE,UTMWGS,T,33,292332.434,4642013.583,0.000*12
$PIXSE,HEAVE_,-5.000,-5.000,-5.000*51
$PIXSE,TIME__,094340.702571*60
$PIXSE,STDHRP,0.009,0.019,0.050*74
$PIXSE,STDPOS,0.00,0.00,0.00*46
$PIXSE,STDSPD,0.000,0.000,0.000*7D
$PIXSE,ALGSTS,00000300,0000000F*10
$PIXSE,STATUS,00000000,00010000*6E
$PIXSE,HT_STS,FFFD5551*46
$GPGGA,094340.71,4154.16691999,N,01229.78196000,E,4,03,0.000,0.000,M,,M,,*75
$GPGST,094340.71,0.000,50.000,50.000,0.000,0.000,0.000,0.000*5B
$GPVTG,46.308,T,46.308,M,544.093,N,1007.661,K,D*1E
$GPGLL,4154.16691999,N,01229.78196000,E,094340.71,A,D*6D
$GPGGA,094340.72,4154.16691999,N,01229.78196000,E,4,03,0.000,0.000,M,,M,,*76
$GPGST,094340.72,0.000,50.000,50.000,0.000,0.000,0.000,0.000*58
$GPVTG,46.323,T,46.323,M,544.339,N,1008.117,K,D*14
$GPGLL,4154.16691999,N,01229.78196000,E,094340.72,A,D*6E
$GPGGA,094340.73,4154.16691999,N,01229.78196000,E,4,03,0.000,0.000,M,,M,,*77
$GPGST,094340.73,0.000,50.000,50.000,0.000,0.000,0.000,0.000*59
$GPVTG,46.338,T,46.338,M,544.607,N,1008.612,K,D*1E
$GPGLL,4154.16691999,N,01229.78196000,E,094340.73,A,D*6F
$GPGGA,094340.74,4154.16691999,N,01229.78196000,E,4,03,0.000,0.000,M,,M,,*70
$GPGST,094340.74,0.000,50.000,50.000,0.000,0.000,0.000,0.000*5E
$GPVTG,46.353,T,46.353,M,544.895,N,1009.147,K,D*1D
$GPGLL,4154.16691999,N,01229.78196000,E,094340.74,A,D*68
$HEHDT,46.36,T*28
$HEROT,5999.99,A*27
$GPGGA,094340.75,4154.16691999,N,01229.78196000,E,4,03,0.000,0.000,M,,M,,*71
$GPGST,094340.75,0.000,50.000,50.000,0.000,0.000,0.000,0.000*5F
$GPVTG,46.368,T,46.368,M,545.203,N,1009.716,K,D*1B
$GPGLL,4154.16691999,N,01229.78196000,E,094340.75,A,D*69
$AIPOV,094340.7525,46.368,46.368,-46.368,99.999,-99.999,-99.999,0.00,0.00,0.00,41.90278199,012.49636600,0.000,196.640,200.000,-200.000,196.640,-200.000,-200.000,46.368,00000001*51
$HEHDT,46.36,T*28
$HETHS,46.36,S*38
$PIXSE,ATITUD,46.368,46.368*62
$PIXSE,POSITI,41.90278199,12.49636600,0.000*6A
$PIXSE,SPEED_,200.000,196.640,200.000*6D
$PIXSE,UTMWGS,T,33,292332.434,4642013.583,0.000*12
$PIXSE,HEAVE_,-5.000,-5.000,-5.000*51
$PIXSE,TIME__,094340.752571*65
$PIXSE,STDHRP,0.009,0.019,0.050*74
$PIXSE,STDPOS,0.00,0.00,0.00*46
$PIXSE,STDSPD,0.000,0.000,0.000*7D
$PIXSE,ALGSTS,00000300,0000000F*10
$PIXSE,STATUS,00000000,00010000*6E
$PIXSE,HT_STS,FFFD5551*46
$GPGGA,094340.76,4154.16691999,N,01229.78196000,E,4,03,0.000,0.000,M,,M,,*72
$GPGST,094340.76,0.000,50.000,50.000,0.000,0.000,0.000,0.000*5C
$GPVTG,46.383,T,46.383,M,545.529,N,1010.320,K,D*1D
$GPGLL,4154.16691999,N,01229.78196000,E,094340.76,A,D*6A
$GPGGA,094340.77,4154.16691999,N,01229.78196000,E,4,03,0.000,0.000,M,,M,,*73
$GPGST,094340.77,0.000,50.000,50.000,0.000,0.000,0.000,0.000*5D
$GPVTG,46.399,T,46.399,M,545.872,N,1010.955,K,D*16
$GPGLL,4154.16691999,N,01229.78196000,E,094340.77,A,D*6B
$GPGGA,094340.78,4154.16691999,N,01229.78196000,E,4,03,0.000,0.000,M,,M,,*7C
$GPGST,094340.78,0.000,50.000,50.000,0.000,0.000,0.000,0.000*52
$GPVTG,46.414,T,46.414,M,546.230,N,1011.619,K,D*1F
$GPGLL,4154.16691999,N,01229.78196000,E,094340.78,A,D*64
$GPGGA,094340.79,4154.16691999,N,01229.78196000,E,4,03,0.000,0.000,M,,M,,*7D
$GPGST,094340.79,0.000,50.000,50.000,0.000,0.000,0.000,0.000*53
$GPVTG,46.429,T,46.429,M,546.604,N,1012.312,K,D*11
$GPGLL,4154.16691999,N,01229.78196000,E,094340.79,A,D*65
$HEHDT,46.43,T*2A
$HEROT,5999.99,A*27
$GPGGA,094340.80,4154.16691999,N,01229.78196000,E,4,03,0.000,0.000,M,,M,,*7B
$GPGST,094340.80,0.000,50.000,50.000,0.000,0.000,0.000,0.000*55
$GPVTG,46.444,T,46.444,M,546.989,N,1013.024,K,D*1C
$GPGLL,4154.16691999,N,01229.78196000,E,094340.80,A,D*63
$AIPOV,094340.8025,46.444,46.444,-46.444,99.999,-99.999,-99.999,0.00,0.00,0.00,41.90278199,012.49636600,0.000,197.948,200.000,-200.000,197.948,-200.000,-200.000,46.444,00000001*5B
$HEHDT,46.44,T*2D
$HETHS,46.44,S*3D
$PIXSE,ATITUD,46.444,46.444*62
$PIXSE,POSITI,41.90278199,12.49636600,0.000*6A
$PIXSE,SPEED_,200.000,197.948,200.000*6B
$PIXSE,UTMWGS,T,33,292332.434,4642013.583,0.000*12
$PIXSE,HEAVE_,-5.000,-5.000,-5.000*51
$PIXSE,TIME__,094340.802574*6A
$PIXSE,STDHRP,0.009,0.019,0.050*74
$PIXSE,STDPOS,0.00,0.00,0.00*46
$PIXSE,STDSPD,0.000,0.000,0.000*7D
$PIXSE,ALGSTS,00000300,0000000F*10
$PIXSE,STATUS,00000000,00010000*6E
$PIXSE,HT_STS,FFFD5551*46
$GPGGA,094340.81,4154.16691999,N,01229.78196000,E,4,03,0.000,0.000,M,,M,,*7A
$GPGST,094340.81,0.000,50.000,50.000,0.000,0.000,0.000,0.000*54
$GPVTG,46.459,T,46.459,M,547.386,N,1013.759,K,D*15
$GPGLL,4154.16691999,N,01229.78196000,E,094340.81,A,D*62
$GPGGA,094340.82,4154.16691999,N,01229.78196000,E,4,03,0.000,0.000,M,,M,,*79
$GPGST,094340.82,0.000,50.000,50.000,0.000,0.000,0.000,0.000*57
$GPVTG,46.474,T,46.474,M,547.790,N,1014.508,K,D*17
$GPGLL,4154.16691999,N,01229.78196000,E,094340.82,A,D*61
$GPGGA,094340.83,4154.16691999,N,01229.78196000,E,4,03,0.000,0.000,M,,M,,*78
$GPGST,094340.83,0.000,50.000,50.000,0.000,0.000,0.000,0.000*56
$GPVTG,46.489,T,46.489,M,548.205,N,1015.277,K,D*1F
$GPGLL,4154.16691999,N,01229.78196000,E,094340.83,A,D*60
$GPGGA,094340.84,4154.16691999,N,01229.78196000,E,4,03,0.000,0.000,M,,M,,*7F
$GPGST,094340.84,0.000,50.000,50.000,0.000,0.000,0.000,0.000*51
$GPVTG,46.504,T,46.504,M,548.627,N,1016.059,K,D*16
$GPGLL,4154.16691999,N,01229.78196000,E,094340.84,A,D*67
$HEHDT,46.51,T*29
$HEROT,5999.99,A*27
$GPGGA,094340.85,4154.16691999,N,01229.78196000,E,4,03,0.000,0.000,M,,M,,*7E
$GPGST,094340.85,0.000,50.000,50.000,0.000,0.000,0.000,0.000*50
$GPVTG,46.519,T,46.519,M,549.055,N,1016.850,K,D*15
$GPGLL,4154.16691999,N,01229.78196000,E,094340.85,A,D*66
$AIPOV,094340.8525,46.519,46.519,-46.519,99.999,-99.999,-99.999,0.00,0.00,0.00,41.90278199,012.49636600,0.000,199.456,200.000,-200.000,199.456,-200.000,-200.000,46.519,00000001*5E
$HEHDT,46.51,T*29
$HETHS,46.51,S*39
$PIXSE,ATITUD,46.519,46.519*62
$PIXSE,POSITI,41.90278199,12.49636600,0.000*6A
$PIXSE,SPEED_,200.000,199.456,200.000*67
$PIXSE,UTMWGS,T,33,292332.434,4642013.583,0.000*12
$PIXSE,HEAVE_,-5.000,-5.000,-5.000*51
$PIXSE,TIME__,094340.852573*68
$PIXSE,STDHRP,0.009,0.019,0.050*74
$PIXSE,STDPOS,0.00,0.00,0.00*46
$PIXSE,STDSPD,0.000,0.000,0.000*7D
$PIXSE,ALGSTS,00000300,0000000F*10
$PIXSE,STATUS,00000000,00010000*6E
$PIXSE,HT_STS,FFFD5551*46
$GPGGA,094340.86,4154.16691999,N,01229.78196000,E,4,03,0.000,0.000,M,,M,,*7D
$GPGST,094340.86,0.000,50.000,50.000,0.000,0.000,0.000,0.000*53
$GPVTG,46.534,T,46.534,M,549.484,N,1017.645,K,D*16
$GPGLL,4154.16691999,N,01229.78196000,E,094340.86,A,D*65
$GPGGA,094340.87,4154.16691999,N,01229.78196000,E,4,03,0.000,0.000,M,,M,,*7C
$GPGST,094340.87,0.000,50.000,50.000,0.000,0.000,0.000,0.000*52
$GPVTG,46.549,T,46.549,M,549.916,N,1018.445,K,D*1D
$GPGLL,4154.16691999,N,01229.78196000,E,094340.87,A,D*64
$GPGGA,094340.88,4154.16691999,N,01229.78196000,E,4,03,0.000,0.000,M,,M,,*73
$GPGST,094340.88,0.000,50.000,50.000,0.000,0.000,0.000,0.000*5D
$GPVTG,46.563,T,46.563,M,550.347,N,1019.243,K,D*1A
$GPGLL,4154.16691999,N,01229.78196000,E,094340.88,A,D*6B
$GPGGA,094340.89,4154.16691999,N,01229.78196000,E,4,03,0.000,0.000,M,,M,,*72
$GPGST,094340.89,0.000,50.000,50.000,0.000,0.000,0.000,0.000*5C
$GPVTG,46.578,T,46.578,M,550.779,N,1020.044,K,D*1C
$GPGLL,4154.16691999,N,01229.78196000,E,094340.89,A,D*6A
$HEHDT,46.58,T*20
$HEROT,5999.99,A*27
$GPGGA,094340.90,4154.16691999,N,01229.78196000,E,4,03,0.000,0.000,M,,M,,*7A
$GPGST,094340.90,0.000,50.000,50.000,0.000,0.000,0.000,0.000*54
$GPVTG,46.593,T,46.593,M,551.205,N,1020.832,K,D*1A
$GPGLL,4154.16691999,N,01229.78196000,E,094340.90,A,D*62
$AIPOV,094340.9025,46.593,46.593,-46.593,99.999,-99.999,-99.999,0.00,0.00,0.00,41.90278199,012.49636600,0.000,201.019,200.000,-200.000,201.019,-200.000,-200.000,46.593,00000001*5A
$HEHDT,46.59,T*21
$HETHS,46.59,S*31
$PIXSE,ATITUD,46.593,46.593*62
$PIXSE,POSITI,41.90278199,12.49636600,0.000*6A
$PIXSE,SPEED_,200.000,201.019,200.000*6A
$PIXSE,UTMWGS,T,33,292332.434,4642013.583,0.000*12
$PIXSE,HEAVE_,-5.000,-5.000,-5.000*51
$PIXSE,TIME__,094340.902572*6D
$PIXSE,STDHRP,0.009,0.019,0.050*74
$PIXSE,STDPOS,0.00,0.00,0.00*46
$PIXSE,STDSPD,0.000,0.000,0.000*7D
$PIXSE,ALGSTS,00000300,0000000F*10
$PIXSE,STATUS,00000000,00010000*6E
$PIXSE,HT_STS,FFFD5551*46
$GPGGA,094340.91,4154.16691999,N,01229.78196000,E,4,03,0.000,0.000,M,,M,,*7B
$GPGST,094340.91,0.000,50.000,50.000,0.000,0.000,0.000,0.000*55
$GPVTG,46.608,T,46.608,M,551.624,N,1021.608,K,D*1B
$GPGLL,4154.16691999,N,01229.78196000,E,094340.91,A,D*63
$GPGGA,094340.92,4154.16691999,N,01229.78196000,E,4,03,0.000,0.000,M,,M,,*78
$GPGST,094340.92,0.000,50.000,50.000,0.000,0.000,0.000,0.000*56
$GPVTG,46.623,T,46.623,M,552.038,N,1022.375,K,D*1F
$GPGLL,4154.16691999,N,01229.78196000,E,094340.92,A,D*60
$GPGGA,094340.93,4154.16691999,N,01229.78196000,E,4,03,0.000,0.000,M,,M,,*79
$GPGST,094340.93,0.000,50.000,50.000,0.000,0.000,0.000,0.000*57
$GPVTG,46.638,T,46.638,M,552.444,N,1023.126,K,D*15
$GPGLL,4154.16691999,N,01229.78196000,E,094340.93,A,D*61
$GPGGA,094340.94,4154.16691999,N,01229.78196000,E,4,03,0.000,0.000,M,,M,,*7E
$GPGST,094340.94,0.000,50.000,50.000,0.000,0.000,0.000,0.000*50
$GPVTG,46.653,T,46.653,M,552.841,N,1023.862,K,D*15
$GPGLL,4154.16691999,N,01229.78196000,E,094340.94,A,D*66
$HEHDT,46.66,T*2D
$HEROT,5999.99,A*27
$GPGGA,094340.95,4154.16691999,N,01229.78196000,E,4,03,0.000,0.000,M,,M,,*7F
$GPGST,094340.95,0.000,50.000,50.000,0.000,0.000,0.000,0.000*51
$GPVTG,46.668,T,46.668,M,553.224,N,1024.571,K,D*15
$GPGLL,4154.16691999,N,01229.78196000,E,094340.95,A,D*67
$AIPOV,094340.9525,46.668,46.668,-46.668,99.999,-99.999,-99.999,0.00,0.00,0.00,41.90278199,012.49636600,0.000,202.482,200.000,-200.000,202.482,-200.000,-200.000,46.668,00000001*5F
$HEHDT,46.66,T*2D
$HETHS,46.66,S*3D
$PIXSE,ATITUD,46.668,46.668*62
$PIXSE,POSITI,41.90278199,12.49636600,0.000*6A
$PIXSE,SPEED_,200.000,202.482,200.000*6F
$PIXSE,UTMWGS,T,33,292332.434,4642013.583,0.000*12
$PIXSE,HEAVE_,-5.000,-5.000,-5.000*51
$PIXSE,TIME__,094340.952571*6B
$PIXSE,STDHRP,0.009,0.019,0.050*74
$PIXSE,STDPOS,0.00,0.00,0.00*46
$PIXSE,STDSPD,0.000,0.000,0.000*7D
$PIXSE,ALGSTS,00000300,0000000F*10
$PIXSE,STATUS,00000000,00010000*6E
$PIXSE,HT_STS,FFFD5551*46
$GPGGA,094340.96,4154.16691999,N,01229.78196000,E,4,03,0.000,0.000,M,,M,,*7C
$GPGST,094340.96,0.000,50.000,50.000,0.000,0.000,0.000,0.000*52
$GPVTG,46.682,T,46.682,M,553.593,N,1025.254,K,D*1F
$GPGLL,4154.16691999,N,01229.78196000,E,094340.96,A,D*64
$GPGGA,094340.97,4154.16691999,N,01229.78196000,E,4,03,0.000,0.000,M,,M,,*7D
$GPGST,094340.97,0.000,50.000,50.000,0.000,0.000,0.000,0.000*53
$GPVTG,46.697,T,46.697,M,553.948,N,1025.912,K,D*1C
$GPGLL,4154.16691999,N,01229.78196000,E,094340.97,A,D*65
$GPGGA,094340.98,4154.16691999,N,01229.78196000,E,4,03,0.000,0.000,M,,M,,*72
$GPGST,094340.98,0.000,50.000,50.000,0.000,0.000,0.000,0.000*5C
$GPVTG,46.712,T,46.712,M,554.288,N,1026.541,K,D*15
$GPGLL,4154.16691999,N,01229.78196000,E,094340.98,A,D*6A
$GPGGA,094340.99,4154.16691999,N,01229.78196000,E,4,03,0.000,0.000,M,,M,,*73
$GPGST,094340.99,0.000,50.000,50.000,0.000,0.000,0.000,0.000*5D
$GPVTG,46.727,T,46.727,M,554.610,N,1027.137,K,D*14
$GPGLL,4154.16691999,N,01229.78196000,E,094340.99,A,D*6B
$HEHDT,46.73,T*29
$HEROT,5999.99,A*27
$GPGGA,094341.00,4154.16691999,N,01229.78196000,E,4,03,0.000,0.000,M,,M,,*72
$GPGST,094341.00,0.000,50.000,50.000,0.000,0.000,0.000,0.000*5C
$GPVTG,46.741,T,46.741,M,554.914,N,1027.701,K,D*1C
$GPGLL,4154.16691999,N,01229.78196000,E,094341.00,A,D*6A
$AIPOV,094341.0025,46.741,46.741,-46.741,99.999,-99.999,-99.999,0.00,0.00,0.00,41.90278199,012.49636600,0.000,203.702,200.000,-200.000,203.702,-200.000,-200.000,46.741,00000001*52
$HEHDT,46.74,T*2E
$HETHS,46.74,S*3E
$PIXSE,ATITUD,46.741,46.741*62
$PIXSE,POSITI,41.90278199,12.49636600,0.000*6A
$PIXSE,SPEED_,200.000,203.702,200.000*65
$PIXSE,UTMWGS,T,33,292332.434,4642013.583,0.000*12
$PIXSE,HEAVE_,-5.000,-5.000,-5.000*51
$PIXSE,TIME__,094341.002571*66
$PIXSE,STDHRP,0.009,0.019,0.050*74
$PIXSE,STDPOS,0.00,0.00,0.00*46
$PIXSE,STDSPD,0.000,0.000,0.000*7D
$PIXSE,ALGSTS,00000300,0000000F*10
$PIXSE,STATUS,00000000,00010000*6E
$PIXSE,HT_STS,FFFD5551*46
$GPGGA,094341.01,4154.16691999,N,01229.78196000,E,4,03,0.000,0.000,M,,M,,*73
$GPGST,094341.01,0.000,50.000,50.000,0.000,0.000,0.000,0.000*5D
$GPVTG,46.756,T,46.756,M,555.195,N,1028.221,K,D*14
$GPGLL,4154.16691999,N,01229.78196000,E,094341.01,A,D*6B
$GPGGA,094341.02,4154.16691999,N,01229.78196000,E,4,03,0.000,0.000,M,,M,,*70
$GPGST,094341.02,0.000,50.000,50.000,0.000,0.000,0.000,0.000*5E
$GPVTG,46.771,T,46.771,M,555.456,N,1028.706,K,D*1E
$GPGLL,4154.16691999,N,01229.78196000,E,094341.02,A,D*68
$GPGGA,094341.03,4154.16691999,N,01229.78196000,E,4,03,0.000,0.000,M,,M,,*71
$GPGST,094341.03,0.000,50.000,50.000,0.000,0.000,0.000,0.000*5F
$GPVTG,46.785,T,46.785,M,555.695,N,1029.148,K,D*1E
$GPGLL,4154.16691999,N,01229.78196000,E,094341.03,A,D*69
$GPGGA,094341.04,4154.16691999,N,01229.78196000,E,4,03,0.000,0.000,M,,M,,*76
$GPGST,094341.04,0.000,50.000,50.000,0.000,0.000,0.000,0.000*58
$GPVTG,46.800,T,46.800,M,555.913,N,1029.551,K,D*13
$GPGLL,4154.16691999,N,01229.78196000,E,094341.04,A,D*6E
$HEHDT,46.80,T*25
$HEROT,5999.99,A*27
$GPGGA,094341.05,4154.16691999,N,01229.78196000,E,4,03,0.000,0.000,M,,M,,*77
$GPGST,094341.05,0.000,50.000,50.000,0.000,0.000,0.000,0.000*59
$GPVTG,46.815,T,46.815,M,556.104,N,1029.905,K,D*13
$GPGLL,4154.16691999,N,01229.78196000,E,094341.05,A,D*6F
$AIPOV,094341.0525,46.815,46.815,-46.815,99.999,-99.999,-99.999,0.00,0.00,0.00,41.90278199,012.49636600,0.000,204.559,200.000,-200.000,204.559,-200.000,-200.000,46.815,00000001*57
$HEHDT,46.81,T*24
$HETHS,46.81,S*34
$PIXSE,ATITUD,46.815,46.815*62
$PIXSE,POSITI,41.90278199,12.49636600,0.000*6A
$PIXSE,SPEED_,200.000,204.559,200.000*6E
$PIXSE,UTMWGS,T,33,292332.434,4642013.583,0.000*12
$PIXSE,HEAVE_,-5.000,-5.000,-5.000*51
$PIXSE,TIME__,094341.052574*66
$PIXSE,STDHRP,0.009,0.019,0.050*74
$PIXSE,STDPOS,0.00,0.00,0.00*46
$PIXSE,STDSPD,0.000,0.000,0.000*7D
$PIXSE,ALGSTS,00000300,0000000F*10
$PIXSE,STATUS,00000000,00010000*6E
$PIXSE,HT_STS,FFFD5551*46
$GPGGA,094341.06,4154.16691999,N,01229.78196000,E,4,03,0.000,0.000,M,,M,,*74
$GPGST,094341.06,0.000,50.000,50.000,0.000,0.000,0.000,0.000*5A
$GPVTG,46.829,T,46.829,M,556.270,N,1030.212,K,D*16
$GPGLL,4154.16691999,N,01229.78196000,E,094341.06,A,D*6C
$GPGGA,094341.07,4154.16691999,N,01229.78196000,E,4,03,0.000,0.000,M,,M,,*75
$GPGST,094341.07,0.000,50.000,50.000,0.000,0.000,0.000,0.000*5B
$GPVTG,46.844,T,46.844,M,556.411,N,1030.474,K,D*11
$GPGLL,4154.16691999,N,01229.78196000,E,094341.07,A,D*6D
$GPGGA,094341.08,4154.16691999,N,01229.78196000,E,4,03,0.000,0.000,M,,M,,*7A
$GPGST,094341.08,0.000,50.000,50.000,0.000,0.000,0.000,0.000*54
$GPVTG,46.859,T,46.859,M,556.526,N,1030.686,K,D*1B
$GPGLL,4154.16691999,N,01229.78196000,E,094341.08,A,D*62
$GPGGA,094341.09,4154.16691999,N,01229.78196000,E,4,03,0.000,0.000,M,,M,,*7B
$GPGST,094341.09,0.000,50.000,50.000,0.000,0.000,0.000,0.000*55
$GPVTG,46.873,T,46.873,M,556.615,N,1030.851,K,D*1C
$GPGLL,4154.16691999,N,01229.78196000,E,094341.09,A,D*63
$HEHDT,46.88,T*2D
$HEROT,5999.99,A*27
$GPGGA,094341.10,4154.16691999,N,01229.78196000,E,4,03,0.000,0.000,M,,M,,*73
$GPGST,094341.10,0.000,50.000,50.000,0.000,0.000,0.000,0.000*5D
$GPVTG,46.888,T,46.888,M,556.676,N,1030.964,K,D*1E
$GPGLL,4154.16691999,N,01229.78196000,E,094341.10,A,D*6B
$AIPOV,094341.1025,46.888,46.888,-46.888,99.999,-99.999,-99.999,0.00,0.00,0.00,41.90278199,012.49636600,0.000,204.970,200.000,-200.000,204.970,-200.000,-200.000,46.888,00000001*53
$HEHDT,46.88,T*2D
$HETHS,46.88,S*3D
$PIXSE,ATITUD,46.888,46.888*62
$PIXSE,POSITI,41.90278199,12.49636600,0.000*6A
$PIXSE,SPEED_,200.000,204.970,200.000*69
$PIXSE,UTMWGS,T,33,292332.434,4642013.583,0.000*12
$PIXSE,HEAVE_,-5.000,-5.000,-5.000*51
$PIXSE,TIME__,094341.102573*65
$PIXSE,STDHRP,0.009,0.019,0.050*74
$PIXSE,STDPOS,0.00,0.00,0.00*46
$PIXSE,STDSPD,0.000,0.000,0.000*7D
$PIXSE,ALGSTS,00000300,0000000F*10
$PIXSE,STATUS,00000000,00010000*6E
$PIXSE,HT_STS,FFFD5551*46
$GPGGA,094341.11,4154.16691999,N,01229.78196000,E,4,03,0.000,0.000,M,,M,,*72
$GPGST,094341.11,0.000,50.000,50.000,0.000,0.000,0.000,0.000*5C
$GPVTG,46.902,T,46.902,M,556.709,N,1031.026,K,D*19
$GPGLL,4154.16691999,N,01229.78196000,E,094341.11,A,D*6A
$GPGGA,094341.12,4154.16691999,N,01229.78196000,E,4,03,0.000,0.000,M,,M,,*71
$GPGST,094341.12,0.000,50.000,50.000,0.000,0.000,0.000,0.000*5F
$GPVTG,46.917,T,46.917,M,556.716,N,1031.038,K,D*18
$GPGLL,4154.16691999,N,01229.78196000,E,094341.12,A,D*69
$GPGGA,094341.13,4154.16691999,N,01229.78196000,E,4,03,0.000,0.000,M,,M,,*70
$GPGST,094341.13,0.000,50.000,50.000,0.000,0.000,0.000,0.000*5E
$GPVTG,46.931,T,46.931,M,556.695,N,1030.999,K,D*11
$GPGLL,4154.16691999,N,01229.78196000,E,094341.13,A,D*68
$GPGGA,094341.14,4154.16691999,N,01229.78196000,E,4,03,0.000,0.000,M,,M,,*77
$GPGST,094341.14,0.000,50.000,50.000,0.000,0.000,0.000,0.000*59
$GPVTG,46.946,T,46.946,M,556.646,N,1030.909,K,D*16
$GPGLL,4154.16691999,N,01229.78196000,E,094341.14,A,D*6F
$HEHDT,46.95,T*21
$HEROT,5999.99,A*27
$GPGGA,094341.15,4154.16691999,N,01229.78196000,E,4,03,0.000,0.000,M,,M,,*76
$GPGST,094341.15,0.000,50.000,50.000,0.000,0.000,0.000,0.000*58
$GPVTG,46.960,T,46.960,M,556.571,N,1030.769,K,D*19
$GPGLL,4154.16691999,N,01229.78196000,E,094341.15,A,D*6E
$AIPOV,094341.1525,46.960,46.960,-46.960,99.999,-99.999,-99.999,0.00,0.00,0.00,41.90278199,012.49636600,0.000,204.894,200.000,-200.000,204.894,-200.000,-200.000,46.960,00000001*56
$HEHDT,46.96,T*22
$HETHS,46.96,S*32
$PIXSE,ATITUD,46.960,46.960*62
$PIXSE,POSITI,41.90278199,12.49636600,0.000*6A
$PIXSE,SPEED_,200.000,204.894,200.000*62
$PIXSE,UTMWGS,T,33,292332.434,4642013.583,0.000*12
$PIXSE,HEAVE_,-5.000,-5.000,-5.000*51
$PIXSE,TIME__,094341.152572*61
$PIXSE,STDHRP,0.009,0.019,0.050*74
$PIXSE,STDPOS,0.00,0.00,0.00*46
$PIXSE,STDSPD,0.000,0.000,0.000*7D
$PIXSE,ALGSTS,00000300,0000000F*10
$PIXSE,STATUS,00000000,00010000*6E
$PIXSE,HT_STS,FFFD5551*46
$GPGGA,094341.16,4154.16691999,N,01229.78196000,E,4,03,0.000,0.000,M,,M,,*75
$GPGST,094341.16,0.000,50.000,50.000,0.000,0.000,0.000,0.000*5B
$GPVTG,46.975,T,46.975,M,556.469,N,1030.580,K,D*14
$GPGLL,4154.16691999,N,01229.78196000,E,094341.16,A,D*6D
$GPGGA,094341.17,4154.16691999,N,01229.78196000,E,4,03,0.000,0.000,M,,M,,*74
$GPGST,094341.17,0.000,50.000,50.000,0.000,0.000,0.000,0.000*5A
$GPVTG,46.989,T,46.989,M,556.340,N,1030.342,K,D*10
$GPGLL,4154.16691999,N,01229.78196000,E,094341.17,A,D*6C
$GPGGA,094341.18,4154.16691999,N,01229.78196000,E,4,03,0.000,0.000,M,,M,,*7B
$GPGST,094341.18,0.000,50.000,50.000,0.000,0.000,0.000,0.000*55
$GPVTG,47.003,T,47.003,M,556.185,N,1030.055,K,D*1E
$GPGLL,4154.16691999,N,01229.78196000,E,094341.18,A,D*63
$GPGGA,094341.19,4154.16691999,N,01229.78196000,E,4,03,0.000,0.000,M,,M,,*7A
$GPGST,094341.19,0.000,50.000,50.000,0.000,0.000,0.000,0.000*54
$GPVTG,47.018,T,47.018,M,556.004,N,1029.719,K,D*11
$GPGLL,4154.16691999,N,01229.78196000,E,094341.19,A,D*62
$HEHDT,47.02,T*2E
$HEROT,5999.99,A*27
$GPGGA,094341.20,4154.16691999,N,01229.78196000,E,4,03,0.000,0.000,M,,M,,*70
$GPGST,094341.20,0.000,50.000,50.000,0.000,0.000,0.000,0.000*5E
$GPVTG,47.032,T,47.032,M,555.799,N,1029.341,K,D*18
$GPGLL,4154.16691999,N,01229.78196000,E,094341.20,A,D*68
$AIPOV,094341.2025,47.032,47.032,-47.032,99.999,-99.999,-99.999,0.00,0.00,0.00,41.90278199,012.49636600,0.000,204.340,200.000,-200.000,204.340,-200.000,-200.000,47.032,00000001*50
$HEHDT,47.03,T*2F
$HETHS,47.03,S*3F
$PIXSE,ATITUD,47.032,47.032*62
$PIXSE,POSITI,41.90278199,12.49636600,0.000*6A
$PIXSE,SPEED_,200.000,204.340,200.000*60
$PIXSE,UTMWGS,T,33,292332.434,4642013.583,0.000*12
$PIXSE,HEAVE_,-5.000,-5.000,-5.000*51
$PIXSE,TIME__,094341.202571*64
$PIXSE,STDHRP,0.009,0.019,0.050*74
$PIXSE,STDPOS,0.00,0.00,0.00*46
$PIXSE,STDSPD,0.000,0.000,0.000*7D
$PIXSE,ALGSTS,00000300,0000000F*10
$PIXSE,STATUS,00000000,00010000*6E
$PIXSE,HT_STS,FFFD5551*46
$GPGGA,094341.21,4154.16691999,N,01229.78196000,E,4,03,0.000,0.000,M,,M,,*71
$GPGST,094341.21,0.000,50.000,50.000,0.000,0.000,0.000,0.000*5F
$GPVTG,47.047,T,47.047,M,555.573,N,1028.921,K,D*13
$GPGLL,4154.16691999,N,01229.78196000,E,094341.21,A,D*69
$GPGGA,094341.22,4154.16691999,N,01229.78196000,E,4,03,0.000,0.000,M,,M,,*72
$GPGST,094341.22,0.000,50.000,50.000,0.000,0.000,0.000,0.000*5C
$GPVTG,47.061,T,47.061,M,555.321,N,1028.456,K,D*1F
$GPGLL,4154.16691999,N,01229.78196000,E,094341.22,A,D*6A
$GPGGA,094341.23,4154.16691999,N,01229.78196000,E,4,03,0.000,0.000,M,,M,,*73
$GPGST,094341.23,0.000,50.000,50.000,0.000,0.000,0.000,0.000*5D
$GPVTG,47.075,T,47.075,M,555.049,N,1027.950,K,D*16
$GPGLL,4154.16691999,N,01229.78196000,E,094341.23,A,D*6B
$GPGGA,094341.24,4154.16691999,N,01229.78196000,E,4,03,0.000,0.000,M,,M,,*74
$GPGST,094341.24,0.000,50.000,50.000,0.000,0.000,0.000,0.000*5A
$GPVTG,47.090,T,47.090,M,554.753,N,1027.404,K,D*17
$GPGLL,4154.16691999,N,01229.78196000,E,094341.24,A,D*6C
$HEHDT,47.09,T*25
$HEROT,5999.99,A*27
$GPGGA,094341.25,4154.16691999,N,01229.78196000,E,4,03,0.000,0.000,M,,M,,*75
$GPGST,094341.25,0.000,50.000,50.000,0.000,0.000,0.000,0.000*5B
$GPVTG,47.104,T,47.104,M,554.441,N,1026.825,K,D*19
$GPGLL,4154.16691999,N,01229.78196000,E,094341.25,A,D*6D
$AIPOV,094341.2525,47.104,47.104,-47.104,99.999,-99.999,-99.999,0.00,0.00,0.00,41.90278199,012.49636600,0.000,203.361,200.000,-200.000,203.361,-200.000,-200.000,47.104,00000001*55
$HEHDT,47.10,T*2D
$HETHS,47.10,S*3D
$PIXSE,ATITUD,47.104,47.104*62
$PIXSE,POSITI,41.90278199,12.49636600,0.000*6A
$PIXSE,SPEED_,200.000,203.361,200.000*64
$PIXSE,UTMWGS,T,33,292332.434,4642013.583,0.000*12
$PIXSE,HEAVE_,-5.000,-5.000,-5.000*51
$PIXSE,TIME__,094341.252571*61
$PIXSE,STDHRP,0.009,0.019,0.050*74
$PIXSE,STDPOS,0.00,0.00,0.00*46
$PIXSE,STDSPD,0.000,0.000,0.000*7D
$PIXSE,ALGSTS,00000300,0000000F*10
$PIXSE,STATUS,00000000,00010000*6E
$PIXSE,HT_STS,FFFD5551*46
$GPGGA,094341.26,4154.16691999,N,01229.78196000,E,4,03,0.000,0.000,M,,M,,*76
$GPGST,094341.26,0.000,50.000,50.000,0.000,0.000,0.000,0.000*58
$GPVTG,47.118,T,47.118,M,554.111,N,1026.213,K,D*16
$GPGLL,4154.16691999,N,01229.78196000,E,094341.26,A,D*6E
$GPGGA,094341.27,4154.16691999,N,01229.78196000,E,4,03,0.000,0.000,M,,M,,*77
$GPGST,094341.27,0.000,50.000,50.000,0.000,0.000,0.000,0.000*59
$GPVTG,47.132,T,47.132,M,553.763,N,1025.570,K,D*13
$GPGLL,4154.16691999,N,01229.78196000,E,094341.27,A,D*6F
$GPGGA,094341.28,4154.16691999,N,01229.78196000,E,4,03,0.000,0.000,M,,M,,*78
$GPGST,094341.28,0.000,50.000,50.000,0.000,0.000,0.000,0.000*56
$GPVTG,47.146,T,47.146,M,553.399,N,1024.896,K,D*16
$GPGLL,4154.16691999,N,01229.78196000,E,094341.28,A,D*60
$GPGGA,094341.29,4154.16691999,N,01229.78196000,E,4,03,0.000,0.000,M,,M,,*79
$GPGST,094341.29,0.000,50.000,50.000,0.000,0.000,0.000,0.000*57
$GPVTG,47.161,T,47.161,M,553.020,N,1024.193,K,D*1B
$GPGLL,4154.16691999,N,01229.78196000,E,094341.29,A,D*61
$HEHDT,47.16,T*2B
$HEROT,5999.99,A*27
$GPGGA,094341.30,4154.16691999,N,01229.78196000,E,4,03,0.000,0.000,M,,M,,*71
$GPGST,094341.30,0.000,50.000,50.000,0.000,0.000,0.000,0.000*5F
$GPVTG,47.175,T,47.175,M,552.630,N,1023.470,K,D*12
$GPGLL,4154.16691999,N,01229.78196000,E,094341.30,A,D*69
$AIPOV,094341.3025,47.175,47.175,-47.175,99.999,-99.999,-99.999,0.00,0.00,0.00,41.90278199,012.49636600,0.000,202.052,200.000,-200.000,202.052,-200.000,-200.000,47.175,00000001*51
$HEHDT,47.17,T*2A
$HETHS,47.17,S*3A
$PIXSE,ATITUD,47.175,47.175*62
$PIXSE,POSITI,41.90278199,12.49636600,0.000*6A
$PIXSE,SPEED_,200.000,202.052,200.000*66
$PIXSE,UTMWGS,T,33,292332.434,4642013.583,0.000*12
$PIXSE,HEAVE_,-5.000,-5.000,-5.000*51
$PIXSE,TIME__,094341.302574*60
$PIXSE,STDHRP,0.009,0.019,0.050*74
$PIXSE,STDPOS,0.00,0.00,0.00*46
$PIXSE,STDSPD,0.000,0.000,0.000*7D
$PIXSE,ALGSTS,00000300,0000000F*10
$PIXSE,STATUS,00000000,00010000*6E
$PIXSE,HT_STS,FFFD5551*46
$GPGGA,094341.31,4154.16691999,N,01229.78196000,E,4,03,0.000,0.000,M,,M,,*70
$GPGST,094341.31,0.000,50.000,50.000,0.000,0.000,0.000,0.000*5E
$GPVTG,47.189,T,47.189,M,552.230,N,1022.731,K,D*11
$GPGLL,4154.16691999,N,01229.78196000,E,094341.31,A,D*68
$GPGGA,094341.32,4154.16691999,N,01229.78196000,E,4,03,0.000,0.000,M,,M,,*73
$GPGST,094341.32,0.000,50.000,50.000,0.000,0.000,0.000,0.000*5D
$GPVTG,47.203,T,47.203,M,551.821,N,1021.972,K,D*12
$GPGLL,4154.16691999,N,01229.78196000,E,094341.32,A,D*6B
$GPGGA,094341.33,4154.16691999,N,01229.78196000,E,4,03,0.000,0.000,M,,M,,*72
$GPGST,094341.33,0.000,50.000,50.000,0.000,0.000,0.000,0.000*5C
$GPVTG,47.217,T,47.217,M,551.403,N,1021.199,K,D*13
$GPGLL,4154.16691999,N,01229.78196000,E,094341.33,A,D*6A
$GPGGA,094341.34,4154.16691999,N,01229.78196000,E,4,03,0.000,0.000,M,,M,,*75
$GPGST,094341.34,0.000,50.000,50.000,0.000,0.000,0.000,0.000*5B
$GPVTG,47.231,T,47.231,M,550.976,N,1020.409,K,D*10
$GPGLL,4154.16691999,N,01229.78196000,E,094341.34,A,D*6D
$HEHDT,47.23,T*2D
$HEROT,5999.99,A*27
$GPGGA,094341.35,4154.16691999,N,01229.78196000,E,4,03,0.000,0.000,M,,M,,*74
