$GPGGA,030903.76,0000.00000000,N,00000.00000000,E,6,03,70.710,0.000,M,,M,,*4F
$GPGST,030903.76,0.000,50.000,50.000,0.000,50.000,50.000,10.000*6E
$GPVTG,0.000,T,0.000,M,0.000,N,0.000,K,E*27
$GPGLL,0000.00000000,N,00000.00000000,E,030903.76,V,E*72
$AIPOV,030903.7675,0.000,0.000,0.000,0.000,0.000,0.000,0.00,0.00,0.00,00.00000000,000.00000000,0.000,0.000,0.000,0.000,0.000,0.000,0.000,0.000,4C000000*10
$HEHDT,,T*01
$HETHS,,V*14
$PIXSE,ATITUD,0.000,0.000*62
$PIXSE,POSITI,0.00000000,0.00000000,0.000*61
$PIXSE,SPEED_,0.000,0.000,0.000*61
$PIXSE,UTMWGS,N,31,166021.443,0.000,0.000*0B
$PIXSE,HEAVE_,0.000,0.000,0.000*79
$PIXSE,TIME__,030903.767585*6B
$PIXSE,STDHRP,60.000,5.000,5.000*46
$PIXSE,STDPOS,50.00,50.00,10.00*77
$PIXSE,STDSPD,10.000,10.000,0.100*7C
$PIXSE,ALGSTS,00000042,00000000*63
$PIXSE,STATUS,00000000,00200000*6D
$PIXSE,HT_STS,FFFD5552*45
$HEHDT,,T*01
$HEROT,0.00,V*0C
$HEHDT,,T*01
$HEROT,0.00,V*0C
$HEHDT,,T*01
$HEROT,0.00,V*0C
$HEHDT,,T*01
$HEROT,0.00,V*0C
$HEHDT,,T*01
$HEROT,0.00,V*0C
$HEHDT,,T*01
$HEROT,0.00,V*0C
$HEHDT,,T*01
$HEROT,0.00,V*0C
$HEHDT,,T*01
$HEROT,0.00,V*0C
$GPGGA,030903.77,0000.00000000,N,00000.00000000,E,6,03,70.710,0.000,M,,M,,*4E
$GPGST,030903.77,0.000,50.000,50.000,0.000,50.000,50.000,10.000*6F
$GPVTG,0.000,T,0.000,M,0.000,N,0.000,K,E*27
$GPGLL,0000.00000000,N,00000.00000000,E,030903.77,V,E*73
$GPGGA,030903.78,0000.00000000,N,00000.00000000,E,6,03,70.710,0.000,M,,M,,*41
$GPGST,030903.78,0.000,50.000,50.000,0.000,50.000,50.000,10.000*60
$GPVTG,0.000,T,0.000,M,0.000,N,0.000,K,E*27
$GPGLL,0000.00000000,N,00000.00000000,E,030903.78,V,E*7C
$GPGGA,030903.79,0000.00000000,N,00000.00000000,E,6,03,70.710,0.000,M,,M,,*40
$GPGST,030903.79,0.000,50.000,50.000,0.000,50.000,50.000,10.000*61
$GPVTG,0.000,T,0.000,M,0.000,N,0.000,K,E*27
$GPGLL,0000.00000000,N,00000.00000000,E,030903.79,V,E*7D
$GPGGA,030903.80,0000.00000000,N,00000.00000000,E,6,03,70.710,0.000,M,,M,,*46
$GPGST,030903.80,0.000,50.000,50.000,0.000,50.000,50.000,10.000*67
$GPVTG,0.000,T,0.000,M,0.000,N,0.000,K,E*27
$GPGLL,0000.00000000,N,00000.00000000,E,030903.80,V,E*7B
$AIPOV,030903.8175,0.000,0.000,0.000,0.000,0.000,0.000,0.00,0.00,0.00,00.00000000,000.00000000,0.000,0.000,0.000,0.000,0.000,0.000,0.000,0.000,4C000000*18
$AIPOV,030903.8675,0.000,0.000,0.000,0.000,0.000,0.000,0.00,0.00,0.00,00.00000000,000.00000000,0.000,0.000,0.000,0.000,0.000,0.000,0.000,0.000,4C000000*1F
$AIPOV,030903.9175,0.000,0.000,0.000,0.000,0.000,0.000,0.00,0.00,0.00,00.00000000,000.00000000,0.000,0.000,0.000,0.000,0.000,0.000,0.000,0.000,4C000000*19
$AIPOV,030903.9675,0.000,0.000,0.000,0.000,0.000,0.000,0.00,0.00,0.00,00.00000000,000.00000000,0.000,0.000,0.000,0.000,0.000,0.000,0.000,0.000,4C000000*1E
$AIPOV,030904.0175,0.000,0.000,0.000,0.000,0.000,0.000,0.00,0.00,0.00,00.00000000,000.00000000,0.000,0.000,0.000,0.000,0.000,0.000,0.000,0.000,4C000000*17
$AIPOV,030904.0675,0.000,0.000,0.000,0.000,0.000,0.000,0.00,0.00,0.00,00.00000000,000.00000000,0.000,0.000,0.000,0.000,0.000,0.000,0.000,0.000,4C000000*10
$HEHDT,,T*01
$HETHS,,V*14
$PIXSE,ATITUD,0.000,0.000*62
$PIXSE,POSITI,0.00000000,0.00000000,0.000*61
$PIXSE,SPEED_,0.000,0.000,0.000*61
$PIXSE,UTMWGS,N,31,166021.443,0.000,0.000*0B
$PIXSE,HEAVE_,0.000,0.000,0.000*79
$PIXSE,TIME__,030903.817584*62
$PIXSE,STDHRP,60.000,5.000,5.000*46
$PIXSE,STDPOS,50.00,50.00,10.00*77
$PIXSE,STDSPD,10.000,10.000,0.100*7C
$PIXSE,ALGSTS,00000042,00000000*63
$PIXSE,STATUS,00000000,00200000*6D
$PIXSE,HT_STS,FFFD5552*45
$HEHDT,,T*01
$HETHS,,V*14
$PIXSE,ATITUD,0.000,0.000*62
$PIXSE,POSITI,0.00000000,0.00000000,0.000*61
$PIXSE,SPEED_,0.000,0.000,0.000*61
$PIXSE,UTMWGS,N,31,166021.443,0.000,0.000*0B
$GPGGA,032039.20,0000.00000000,N,00000.00000000,E,6,03,70.710,0.000,M,,M,,*4E
$GPGST,032039.20,0.000,50.000,50.000,0.000,50.000,50.000,10.000*6F
$GPVTG,0.000,T,0.000,M,0.000,N,0.000,K,E*27
$GPGLL,0000.00000000,N,00000.00000000,E,032039.20,V,E*73
$HEHDT,,T*01
$HEROT,0.00,V*0C
$GPGGA,032039.21,0000.00000000,N,00000.00000000,E,6,03,70.710,0.000,M,,M,,*4F
$GPGST,032039.21,0.000,50.000,50.000,0.000,50.000,50.000,10.000*6E
$GPVTG,0.000,T,0.000,M,0.000,N,0.000,K,E*27
$GPGLL,0000.00000000,N,00000.00000000,E,032039.21,V,E*72
$AIPOV,032039.2181,0.000,0.000,0.000,0.000,0.000,0.000,0.00,0.00,0.00,00.00000000,000.00000000,0.000,0.000,0.000,0.000,0.000,0.000,0.000,0.000,4C000000*1B
$GPGGA,032039.22,0000.00000000,N,00000.00000000,E,6,03,70.710,0.000,M,,M,,*4C
$GPGST,032039.22,0.000,50.000,50.000,0.000,50.000,50.000,10.000*6D
$GPVTG,0.000,T,0.000,M,0.000,N,0.000,K,E*27
$GPGLL,0000.00000000,N,00000.00000000,E,032039.22,V,E*71
$HEHDT,,T*01
$HETHS,,V*14
$PIXSE,ATITUD,0.000,0.000*62
$PIXSE,POSITI,0.00000000,0.00000000,0.000*61
$PIXSE,SPEED_,0.000,0.000,0.000*61
$PIXSE,UTMWGS,N,31,166021.443,0.000,0.000*0B
$PIXSE,HEAVE_,0.000,0.000,0.000*79
$PIXSE,TIME__,032039.218162*69
$PIXSE,STDHRP,60.000,5.000,5.000*46
$PIXSE,STDPOS,50.00,50.00,10.00*77
$PIXSE,STDSPD,10.000,10.000,0.100*7C
$PIXSE,ALGSTS,00000042,00000000*63
$PIXSE,STATUS,00000000,00200000*6D
$PIXSE,HT_STS,FFFD5552*45
$HEHDT,,T*01
$HEROT,0.00,V*0C
$HEHDT,,T*01
$HEROT,0.00,V*0C
$HEHDT,,T*01
$HEROT,0.00,V*0C
$HEHDT,,T*01
$HEROT,0.00,V*0C
$HEHDT,,T*01
$HEROT,0.00,V*0C
$HEHDT,,T*01
$HEROT,0.00,V*0C
$GPGGA,032039.23,0000.00000000,N,00000.00000000,E,6,03,70.710,0.000,M,,M,,*4D
$GPGST,032039.23,0.000,50.000,50.000,0.000,50.000,50.000,10.000*6C
$GPVTG,0.000,T,0.000,M,0.000,N,0.000,K,E*27
$GPGLL,0000.00000000,N,00000.00000000,E,032039.23,V,E*70
$GPGGA,032039.24,0000.00000000,N,00000.00000000,E,6,03,70.710,0.000,M,,M,,*4A
$GPGST,032039.24,0.000,50.000,50.000,0.000,50.000,50.000,10.000*6B
$GPVTG,0.000,T,0.000,M,0.000,N,0.000,K,E*27
$GPGLL,0000.00000000,N,00000.00000000,E,032039.24,V,E*77
$GPGGA,032039.25,0000.00000000,N,00000.00000000,E,6,03,70.710,0.000,M,,M,,*4B
$GPGST,032039.25,0.000,50.000,50.000,0.000,50.000,50.000,10.000*6A
$GPVTG,0.000,T,0.000,M,0.000,N,0.000,K,E*27
$GPGLL,0000.00000000,N,00000.00000000,E,032039.25,V,E*76
$GPGGA,032039.26,0000.00000000,N,00000.00000000,E,6,03,70.710,0.000,M,,M,,*48
$GPGST,032039.26,0.000,50.000,50.000,0.000,50.000,50.000,10.000*69
$GPVTG,0.000,T,0.000,M,0.000,N,0.000,K,E*27
$GPGLL,0000.00000000,N,00000.00000000,E,032039.26,V,E*75
$AIPOV,032039.2681,0.000,0.000,0.000,0.000,0.000,0.000,0.00,0.00,0.00,00.00000000,000.00000000,0.000,0.000,0.000,0.000,0.000,0.000,0.000,0.000,4C000000*1C
$AIPOV,032039.3181,0.000,0.000,0.000,0.000,0.000,0.000,0.00,0.00,0.00,00.00000000,000.00000000,0.000,0.000,0.000,0.000,0.000,0.000,0.000,0.000,4C000000*1A
$AIPOV,032039.3681,0.000,0.000,0.000,0.000,0.000,0.000,0.00,0.00,0.00,00.00000000,000.00000000,0.000,0.000,0.000,0.000,0.000,0.000,0.000,0.000,4C000000*1D
$AIPOV,032039.4181,0.000,0.000,0.000,0.000,0.000,0.000,0.00,0.00,0.00,00.00000000,000.00000000,0.000,0.000,0.000,0.000,0.000,0.000,0.000,0.000,4C000000*1D
$AIPOV,032039.4681,0.000,0.000,0.000,0.000,0.000,0.000,0.00,0.00,0.00,00.00000000,000.00000000,0.000,0.000,0.000,0.000,0.000,0.000,0.000,0.000,4C000000*1A
$AIPOV,032039.5181,0.000,0.000,0.000,0.000,0.000,0.000,0.00,0.00,0.00,00.00000000,000.00000000,0.000,0.000,0.000,0.000,0.000,0.000,0.000,0.000,4C000000*1C
$HEHDT,,T*01
$HETHS,,V*14
$PIXSE,ATITUD,0.000,0.000*62
$PIXSE,POSITI,0.00000000,0.00000000,0.000*61
$PIXSE,SPEED_,0.000,0.000,0.000*61
$PIXSE,UTMWGS,N,31,166021.443,0.000,0.000*0B
$PIXSE,HEAVE_,0.000,0.000,0.000*79
$PIXSE,TIME__,032039.268161*6D
$PIXSE,STDHRP,60.000,5.000,5.000*46
$PIXSE,STDPOS,50.00,50.00,10.00*77
$PIXSE,STDSPD,10.000,10.000,0.100*7C
$PIXSE,ALGSTS,00000042,00000000*63
$PIXSE,STATUS,00000000,00200000*6D
$PIXSE,HT_STS,FFFD5552*45
$HEHDT,,T*01
$HETHS,,V*14
$PIXSE,ATITUD,0.000,0.000*62
$PIXSE,POSITI,0.00000000,0.00000000,0.000*61
$PIXSE,SPEED_,0.000,0.000,0.000*61
$PIXSE,UTMWGS,N,31,166021.443,0.000,0.000*0B
$PIXSE,HEAVE_,0.000,0.000,0.000*79
$PIXSE,TIME__,032039.318161*6B
$PIXSE,STDHRP,60.000,5.000,5.000*46
$PIXSE,STDPOS,50.00,50.00,10.00*77
$HEHDT,,T*01
$HEROT,0.00,V*0C
$GPGGA,032458.76,0000.00000000,N,00000.00000000,E,6,03,70.710,0.000,M,,M,,*4E
$GPGST,032458.76,0.000,50.000,50.000,0.000,50.000,50.000,10.000*6F
$GPVTG,0.000,T,0.000,M,0.000,N,0.000,K,E*27
$GPGLL,0000.00000000,N,00000.00000000,E,032458.76,V,E*73
$AIPOV,032458.7683,0.000,0.000,0.000,0.000,0.000,0.000,0.00,0.00,0.00,00.00000000,000.00000000,0.000,0.000,0.000,0.000,0.000,0.000,0.000,0.000,4C000000*18
$HEHDT,,T*01
$HETHS,,V*14
$PIXSE,ATITUD,0.000,0.000*62
$PIXSE,POSITI,0.00000000,0.00000000,0.000*61
$PIXSE,SPEED_,0.000,0.000,0.000*61
$PIXSE,UTMWGS,N,31,166021.443,0.000,0.000*0B
$PIXSE,HEAVE_,0.000,0.000,0.000*79
$PIXSE,TIME__,032458.768379*60
$PIXSE,STDHRP,60.000,5.000,5.000*46
$PIXSE,STDPOS,50.00,50.00,10.00*77
$PIXSE,STDSPD,10.000,10.000,0.100*7C
$PIXSE,ALGSTS,00000042,00000000*63
$PIXSE,STATUS,00000000,00200000*6D
$PIXSE,HT_STS,FFFD5552*45
$HEHDT,,T*01
$HEROT,0.00,V*0C
$HEHDT,,T*01
$HEROT,0.00,V*0C
$HEHDT,,T*01
$HEROT,0.00,V*0C
$HEHDT,,T*01
$HEROT,0.00,V*0C
$HEHDT,,T*01
$HEROT,0.00,V*0C
$HEHDT,,T*01
$HEROT,0.00,V*0C
$HEHDT,,T*01
$HEROT,0.00,V*0C
$HEHDT,,T*01
$HEROT,0.00,V*0C
$GPGGA,032458.77,0000.00000000,N,00000.00000000,E,6,03,70.710,0.000,M,,M,,*4F
$GPGST,032458.77,0.000,50.000,50.000,0.000,50.000,50.000,10.000*6E
$GPVTG,0.000,T,0.000,M,0.000,N,0.000,K,E*27
$GPGLL,0000.00000000,N,00000.00000000,E,032458.77,V,E*72
$GPGGA,032458.78,0000.00000000,N,00000.00000000,E,6,03,70.710,0.000,M,,M,,*40
$GPGST,032458.78,0.000,50.000,50.000,0.000,50.000,50.000,10.000*61
$GPVTG,0.000,T,0.000,M,0.000,N,0.000,K,E*27
$GPGLL,0000.00000000,N,00000.00000000,E,032458.78,V,E*7D
$GPGGA,032458.79,0000.00000000,N,00000.00000000,E,6,03,70.710,0.000,M,,M,,*41
$GPGST,032458.79,0.000,50.000,50.000,0.000,50.000,50.000,10.000*60
$GPVTG,0.000,T,0.000,M,0.000,N,0.000,K,E*27
$GPGLL,0000.00000000,N,00000.00000000,E,032458.79,V,E*7C
$GPGGA,032458.80,0000.00000000,N,00000.00000000,E,6,03,70.710,0.000,M,,M,,*47
$GPGST,032458.80,0.000,50.000,50.000,0.000,50.000,50.000,10.000*66
$GPVTG,0.000,T,0.000,M,0.000,N,0.000,K,E*27
$GPGLL,0000.00000000,N,00000.00000000,E,032458.80,V,E*7A
$AIPOV,032458.8183,0.000,0.000,0.000,0.000,0.000,0.000,0.00,0.00,0.00,00.00000000,000.00000000,0.000,0.000,0.000,0.000,0.000,0.000,0.000,0.000,4C000000*10
$AIPOV,032458.8683,0.000,0.000,0.000,0.000,0.000,0.000,0.00,0.00,0.00,00.00000000,000.00000000,0.000,0.000,0.000,0.000,0.000,0.000,0.000,0.000,4C000000*17
$AIPOV,032458.9183,0.000,0.000,0.000,0.000,0.000,0.000,0.00,0.00,0.00,00.00000000,000.00000000,0.000,0.000,0.000,0.000,0.000,0.000,0.000,0.000,4C000000*11
$AIPOV,032458.9683,0.000,0.000,0.000,0.000,0.000,0.000,0.00,0.00,0.00,00.00000000,000.00000000,0.000,0.000,0.000,0.000,0.000,0.000,0.000,0.000,4C000000*16
$AIPOV,032459.0183,0.000,0.000,0.000,0.000,0.000,0.000,0.00,0.00,0.00,00.00000000,000.00000000,0.000,0.000,0.000,0.000,0.000,0.000,0.000,0.000,4C000000*19
$AIPOV,032459.0683,0.000,0.000,0.000,0.000,0.000,0.000,0.00,0.00,0.00,00.00000000,000.00000000,0.000,0.000,0.000,0.000,0.000,0.000,0.000,0.000,4C000000*1E
$HEHDT,,T*01
$HETHS,,V*14
$PIXSE,ATITUD,0.000,0.000*62
$PIXSE,POSITI,0.00000000,0.00000000,0.000*61
$PIXSE,SPEED_,0.000,0.000,0.000*61
$PIXSE,UTMWGS,N,31,166021.443,0.000,0.000*0B
$PIXSE,HEAVE_,0.000,0.000,0.000*79
$PIXSE,TIME__,032458.818382*6C
